restaurant_name,city,address,latitude,longitude,cuisines,price_level,avg_rating,total_reviews_count,keywords,special_diets,features,atmosphere,keywords_clean,dominant_topic,target,target_pred,probability
L'Epicurien,Colmar,"11 rue Wickram Pres du Marche Couvert, 68000, Colmar France",48.074047,7.360337,"French, European, Healthy",€€-€€€,4.5,792.0,crab steak pork amazing meal main course,,,4.0,crab steak pork amazing meal main course,4,1,1,1.0352186494913391
BLISSS,Merignac,"98 avenue de Magudas, 33700 Merignac, Bordeaux France",44.856964,-0.658354,"French, Contemporary, Healthy",€€€€,5.0,1264.0,front house downtown bordeaux city centre small restaurant french cuisine,,,,front house downtown bordeaux city centre small restaurant french cuisine,2,1,1,0.9265322488199152
La Catrina,Paris,"141 rue du Faubourg Saint Denis, 75010 Paris France",48.877964,2.35639,French,€,4.0,86.0,rabbit steak cheese sauce close our hotel gard,Vegetarian Friendly,,,rabbit steak cheese sauce close our hotel gard,0,1,1,0.6244983535523511
Les Platanes,Poilhes,"1 Place de la Liberte, 34310 Poilhes France",43.307312,3.077314,"French, Mediterranean, European",€€-€€€,4.5,332.0,pudding plane trees canal du new zealand red wine,"Vegetarian Friendly, Gluten Free Options",,4.5,pudding plane trees canal du new zealand red wine,2,1,1,0.8861004852519219
Les Garcons,Villefranche-sur-Mer,"18 rue du Poilu, 06230 Villefranche-sur-Mer France",43.703957,7.311706,"French, Mediterranean, European, Healthy",€€-€€€,4.5,998.0,lamb shank tagliata calamari filet courtyard setting,"Vegetarian Friendly, Vegan Options, Gluten Free Options","Reservations, Outdoor Seating, Seating, Serves Alcohol, Full Bar, Wine and Beer, Accepts Mastercard, Accepts Visa, Accepts Credit Cards, Table Service",4.5,lamb shank tagliata calamari filet courtyard setting,4,1,1,0.26957131398379625
Piccola Italia,Nice,"5 rue Mascoinat, 06300 Nice France",43.69787,7.276578,"Italian, Pizza, European",€€-€€€,3.5,371.0,pizza tiramisu old town french riviera last night,Vegetarian Friendly,,3.5,pizza tiramisu old town french riviera last night,3,0,0,-0.20013337302319023
Le Noailles,Bordeaux,"12 Allees de Tourny, 33000, Bordeaux France",44.843266,-0.575371,French,€€-€€€,4.0,1248.0,oysters liver sole salmon salad,,,4.0,oysters liver sole salmon salad,5,1,0,-1.018677994767939
Kalimera,Strasbourg,"10 rue Sainte Catherine Krutenau, 67000, Strasbourg France",48.580257,7.757305,"Greek, Mediterranean, European, Healthy, International",€€-€€€,4.0,68.0,olive oil visiting strasbourg greek nikol bistro,Vegetarian Friendly,,,olive oil visiting strasbourg greek nikol bistro,2,1,1,1.094088844094578
Le Mercière,Lyon,"56 rue Merciere, 69002 Lyon France",45.76259,4.832739,"French, European",€€-€€€,4.0,1203.0,truffe quenelle penne beef salad,,,3.5,truffe quenelle penne beef salad,0,1,1,1.3363039380036028
L'Imparfait,Bergerac City,"8 rue des Fontaines à 10 rtue des Fontaines, 24100 Bergerac City, Bergerac France",44.85073,0.483719,"French, European, Healthy",€€€€,4.5,976.0,caviar pate scallops euro menu old building,"Vegetarian Friendly, Gluten Free Options",,4.0,caviar pate scallops euro menu old building,4,1,1,1.0728401909400689
Racines,Bordeaux,"59 rue Georges Bonnac, 33000, Bordeaux France",44.840076,-0.58386,"French, Healthy",€€€€,4.5,878.0,quail course menu waiters were friendly chocolatey presentation,,,,quail course menu waiters were friendly chocolatey presentation,4,1,1,0.8695912959564174
Chiloa Gourments,Bayonne,"7, Rue des Tonneliers, 64100, Bayonne France",43.49101,-1.473697,French,€,4.5,294.0,potatoes veal gateau basque veau omelette,,"Reservations, Outdoor Seating, Seating, Highchairs Available, Wheelchair Accessible, Serves Alcohol, Accepts Credit Cards, Table Service",4.0,potatoes veal gateau basque veau omelette,2,1,1,1.4752585721721965
Le Foy,Langres,"7 Place Diderot, 52200 Langres France",47.862797,5.334189,French,€€-€€€,3.5,373.0,salad chocolate mousse burger local cheese beer,,,3.5,salad chocolate mousse burger local cheese beer,5,0,1,0.29529475899059826
Restaurant L'Etage,Annecy,"13 rue du Paquier, 74000, Annecy France",45.900967,6.126608,"French, European",€€-€€€,4.0,1396.0,raclette steak bone marrow salad potatoes,Vegetarian Friendly,,4.0,raclette steak bone marrow salad potatoes,5,1,0,-0.7334246522501716
La Petite Tour,Paris,"11 rue de la Tour Quartier Passy, 75116 Paris France",48.859097,2.283163,"French, European",€€-€€€,4.5,349.0,veal ceviche creme brulee passy area chilly evening,Vegetarian Friendly,,4.0,veal ceviche creme brulee passy area chilly evening,5,1,1,0.31555241985666255
Restaurant David Toutain,Paris,"29 rue Surcouf, 75007 Paris France",48.860218,2.309641,"French, European",€€€€,4.5,744.0,tasting menu cod food lovers memorable meal worth every euro,"Vegetarian Friendly, Vegan Options, Gluten Free Options",,4.0,tasting menu cod food lovers memorable meal worth every euro,4,1,1,1.7320285600294159
L'Ambroisie,Paris,"9 Place des Vosges, 75004 Paris France",48.855362,2.364534,"French, European",€€€€,4.0,527.0,caviar lobster place des vosges french gastronomy star restaurant,,"Reservations, Private Dining, Seating, Valet Parking, Wheelchair Accessible, Serves Alcohol, Accepts Credit Cards, Table Service",4.0,caviar lobster place des vosges french gastronomy star restaurant,4,1,1,1.7268249040354426
Istr,Paris,"41 rue Notre Dame de Nazareth, 75003 Paris France",48.86756,2.357617,"French, Seafood, European, Contemporary",€€-€€€,4.5,171.0,oysters lobster roll bread oyster bar trendy restaurant,Vegetarian Friendly,,,oysters lobster roll bread oyster bar trendy restaurant,1,1,1,1.2073535525413246
La Table de Catusseau,Pomerol,"86 rue de Catusseau, 33500 Pomerol France",44.92354,-0.206324,"French, European",€€€€,4.5,391.0,monkfish bib gourmand saint emilion la carte menu small village,Vegetarian Friendly,,,monkfish bib gourmand saint emilion la carte menu small village,4,1,1,0.8488281415880617
Le Quai,Amiens,"13-15 Quai Belu, 80000, Amiens France",49.896317,2.304426,"Seafood, European, French, Healthy",€€-€€€,4.0,2200.0,steamed fish two course meal burger river busy restaurant,"Vegetarian Friendly, Vegan Options",,4.0,steamed fish two course meal burger river busy restaurant,3,1,0,-0.23283139671200603
Le Tire-bouchon,Strasbourg,"5 rue des Tailleurs de Pierre Proche du Palais Rohan et ses Musées, 67000, Strasbourg France",48.580624,7.750783,"French, European",€€-€€€,4.0,3344.0,choucroute sauerkraut traditional setting large portions old house,,"Accepts American Express, Accepts Mastercard, Accepts Visa, Digital Payments, Reservations, Outdoor Seating, Private Dining, Seating, Highchairs Available, Serves Alcohol, Accepts Credit Cards, Table Service",3.5,choucroute sauerkraut traditional setting large portions old house,2,1,0,-0.025524711763099783
Les belles pintes,Les Arcs,"Residence le refuge du montagnard, Les Arcs, Bourg Saint Maurice France",45.572094,6.827944,Pub,€€-€€€,4.5,254.0,great pub apres ski every night amazing atmosphere beers,,"Outdoor Seating, Seating, Television, Wheelchair Accessible, Serves Alcohol, Full Bar, Table Service, Live Music",4.5,great pub apres ski every night amazing atmosphere beers,1,1,1,1.747822153550624
Restaurant La Maison d'à Côté,Montlivault,"17 rue de Chambord, 41350 Montlivault, Blois France",47.64098,1.445197,"French, Healthy",€€€€,5.0,1084.0,tasting menu chicken caviar chef christophe his team,"Vegetarian Friendly, Vegan Options, Gluten Free Options",,4.5,tasting menu chicken caviar chef christophe his team,4,1,1,1.684930288260958
Union,Montalbert,"Immeuble Le Signal, Rez de Chaussée Vieux Village de Montalbert, 73210 Montalbert France",45.534485,6.635101,"European, British, Contemporary, French",€€€€,5.0,75.0,hummus tasting menu tarte tatin truffle salmon,"Vegetarian Friendly, Vegan Options",,,hummus tasting menu tarte tatin truffle salmon,5,1,1,1.9868177748388973
Cap 21 Les Murenes,Ramatuelle,"Plage de Pampelonne Bd Patch, Ramatuelle, Saint-Tropez France",43.226574,6.662146,"French, Mediterranean, European",€€-€€€,4.5,425.0,mussels seafood st tropez beach restaurant excellent food,"Vegetarian Friendly, Vegan Options",,4.5,mussels seafood st tropez beach restaurant excellent food,0,1,1,0.12049575568179427
Charbonnel,Brantome en Perigord City,"57 rue Gambetta, 24310, Brantome en Perigord France",45.365234,0.649972,"French, European",€€€€,4.5,702.0,amuse bouche ris de veau duck breast truffle main course,Vegetarian Friendly,,4.0,amuse bouche ris de veau duck breast truffle main course,4,1,1,1.0472141119234342
La Lune,Beaune,"32 rue Maufoux, 21200, Beaune France",47.02261,4.834417,"French, Japanese, Asian, Healthy",€€-€€€,5.0,579.0,scallops deep fried chicken fries asian food traditional burgundian,"Vegetarian Friendly, Vegan Options, Gluten Free Options","Reservations, Seating, Serves Alcohol, Accepts Credit Cards, Table Service",4.5,scallops deep fried chicken fries asian food traditional burgundian,3,1,1,0.9129817666076245
Restaurant Christophe Bacquie,Le Castellet,"3001 route des Hauts du Camp, 83330 Le Castellet France",43.249977,5.783203,"French, Mediterranean, European",€€€€,4.5,315.0,glass paul ricard michelin stars pigeon,Vegetarian Friendly,,,glass paul ricard michelin stars pigeon,4,1,1,0.5797186812399118
Firmin le Barbier,Paris,"20 rue de Monttessuy A 100 meter from Eiffel Tower, 75007 Paris France",48.859444,2.298655,"French, Healthy, Diner",€€-€€€,4.5,492.0,steak creme brulee salad eiffel tower entire evening,"Vegetarian Friendly, Vegan Options, Gluten Free Options",,4.5,steak creme brulee salad eiffel tower entire evening,3,1,1,0.10744464181749191
La Chevre d'Or,Eze,"Rue du Barri, 06360 Èze France",43.727257,7.36178,"French, Mediterranean",€€€€,4.5,1178.0,mediterranean sea stunning views once lifetime terrace eze,"Vegetarian Friendly, Gluten Free Options","Parking Available, Valet Parking, Serves Alcohol, Full Bar, Free Wifi, Reservations, Outdoor Seating, Private Dining, Seating, Validated Parking, Accepts American Express, Accepts Mastercard, Accepts Visa, Accepts Credit Cards, Table Service",4.5,mediterranean sea stunning views once lifetime terrace eze,0,1,1,0.04906663950918855
Brasserie le Village,Roissy-en-France,"47 avenue Charles de Gaulle, 95700 Roissy-en-France France",49.002766,2.51699,"French, Bar, European",€€-€€€,4.0,394.0,french onion soup scallops great restaurant village roissy,Vegetarian Friendly,,3.5,french onion soup scallops great restaurant village roissy,5,1,1,1.0625588900433416
Au Coin du Feu,Macot-la-Plagne,"La Plagne Soleil, 73210 Macot-la-Plagne, Aime France",45.508114,6.686254,"French, European, Grill",€€-€€€,4.5,420.0,duck steak raclette potatoes wood fire,Vegetarian Friendly,,4.5,duck steak raclette potatoes wood fire,5,1,0,-0.1793843392254647
Les Fondus De La Raclette Parmentier,Paris,"107 avenue Parmentier, 75011 Paris France",48.867462,2.372896,"Barbecue, French, European",€€-€€€,4.0,513.0,raclette cheese fondue potatoes salad bread,Vegetarian Friendly,,4.0,raclette cheese fondue potatoes salad bread,5,1,1,0.017501820818199065
Karishma Lounge,Divonne-les-Bains,"76 Grande rue, 01220 Divonne-les-Bains France",46.355476,6.14005,Indian,€€-€€€,3.5,437.0,butter chicken masala indian restaurant great indian value money,"Vegetarian Friendly, Vegan Options",,3.5,butter chicken masala indian restaurant great indian value money,3,0,1,1.6091336503281406
Les Cuisines du Chateau,Gordes,"Place Genty Pantaly, 84220, Gordes France",43.91084,5.199954,French,€€-€€€,4.0,320.0,duck nice little restaurant daily menu spoke english ate here,"Vegetarian Friendly, Gluten Free Options",,4.0,duck nice little restaurant daily menu spoke english ate here,1,1,1,0.16051501640498267
La Bergerie de Planpraz,Chamonix,"Telecabine de Planpraz, 74400, Chamonix France",45.936245,6.853733,"French, European",€€-€€€,4.0,335.0,lunch mountain restaurant mont blanc our waiter ski resort,"Vegetarian Friendly, Vegan Options",,4.0,lunch mountain restaurant mont blanc our waiter ski resort,2,1,1,0.8989205574966437
Phillipe Excoffier,Paris,"18 rue de l'exposition  Paris 75007, 75007 Paris France",48.85759,2.303,"French, European",€€€€,4.5,448.0,souffle wonderful meal beautiful presentation chef caramel,Vegetarian Friendly,,4.0,souffle wonderful meal beautiful presentation chef caramel,1,1,1,2.4375235949125975
Le Bordeaux,Lucon,"14 Place des Acacias, 85400 Lucon France",46.45493,-1.166036,"French, Bar, European",€€-€€€,3.5,134.0,pizza salad value money friendly service dough,,,4.0,pizza salad value money friendly service dough,3,0,1,0.4866851305178368
Au Chien Qui Fume,Paris,"33 rue du Pont Neuf, 75001 Paris France",48.861336,2.344947,"French, European",€€-€€€,4.0,314.0,oysters salad snails burger croissants,Vegetarian Friendly,,,oysters salad snails burger croissants,5,1,0,-0.37501885015857794
Restaurant L'Incandescent Rôtissier,Annecy,"4 Faubourg Sainte Claire, 74000, Annecy France",45.89782,6.123382,"French, European, Healthy",€€-€€€,4.5,708.0,gnocchi amazing food booked table dessert dishes,,"Reservations, Seating, Serves Alcohol, Accepts Credit Cards, Table Service",4.5,gnocchi amazing food booked table dessert dishes,1,1,1,0.2435189776832632
Cafe de Turin,Nice,"5 Place Garibaldi, 06300 Nice France",43.700745,7.279576,"Mediterranean, French, Seafood, European, Gastropub",€€-€€€,4.0,4074.0,oysters shellfish fresh seafood sea snails crustaceans,,"Wheelchair Accessible, Free Wifi, Takeout, Outdoor Seating, Seating, Highchairs Available, Serves Alcohol, Full Bar, Wine and Beer, Accepts American Express, Accepts Mastercard, Accepts Visa, Digital Payments, Accepts Credit Cards, Table Service",3.5,oysters shellfish fresh seafood sea snails crustaceans,5,1,1,1.0898835187698834
Esttia,Paris,"11 rue de la Grande Chaumiere, 75006 Paris France",48.84226,2.330711,"French, Contemporary, European",€€-€€€,4.5,207.0,mousse veal burrata small restaurant friendly service,"Vegetarian Friendly, Vegan Options",,,mousse veal burrata small restaurant friendly service,0,1,1,2.690506069501919
La tantina de la Playa,Bidart,"Plage du centre, 64210 Bidart France",43.436474,-1.596342,"French, Seafood, European, Spanish, Healthy",€€-€€€,4.5,1330.0,fish restaurant overlooking beach great restaurant view sea,,"Reservations, Outdoor Seating, Seating, Parking Available, Highchairs Available, Serves Alcohol, Accepts Credit Cards, Table Service, Waterfront",4.0,fish restaurant overlooking beach great restaurant view sea,2,1,1,0.21788189059381052
Xin Gainian,Paris,"55 rue Dauphine, 75006 Paris France",48.854,2.338797,"Chinese, Asian, Vietnamese",€€-€€€,4.5,269.0,noodles soups duck asian fusion restaurant nems,"Vegetarian Friendly, Vegan Options",,4.0,noodles soups duck asian fusion restaurant nems,2,1,1,0.23995852267753187
A La Terrade,Aubusson,"Rue Alfred Assolant Pont de la Terrade, 23200 Aubusson France",45.957233,2.167024,"French, European, Gastropub",€€-€€€,4.0,225.0,lunch river advance high standard food excellent,Vegetarian Friendly,,,lunch river advance high standard food excellent,1,1,1,0.536873216734542
La Cantine,Tignes,"route du Lavachet Centre Commercial Le Lavachet, 73320 Tignes France",45.47141,6.914497,"Cafe, Grill",€,5.0,108.0,toasties toasted sandwich cake goats cheese walnut great little place,"Vegetarian Friendly, Vegan Options",,,toasties toasted sandwich cake goats cheese walnut great little place,3,1,1,1.4998314639806047
Le Twickenham,Paris,"68 boulevard Saint Germain, 75005 Paris France",48.85042,2.347419,"French, European",€€-€€€,3.5,363.0,oysters duck salad steak moules,Vegetarian Friendly,,3.0,oysters duck salad steak moules,5,0,0,-0.19737920242464457
Le Quatrieme Mur,Bordeaux,"2, Place de la Comédie, 33000, Bordeaux France",44.842815,-0.574242,"French, Healthy",€€€€,4.0,5237.0,mushroom ravioli chicken opera house fourth wall grand theatre,,"Seating, Highchairs Available, Wheelchair Accessible, Serves Alcohol, Full Bar, Accepts Credit Cards, Table Service",,mushroom ravioli chicken opera house fourth wall grand theatre,0,1,1,0.41812929797252485
Chuck Wagon Cafe,Marne-la-Vallee,"Disney's Hotel Cheyenne Disneyland Paris, 77700, Marne-la-Vallee France",48.874374,2.791897,Barbecue,€€-€€€,3.5,467.0,pizza chicken ribs cold meats vegetable soup ice cream,Vegetarian Friendly,,3.5,pizza chicken ribs cold meats vegetable soup ice cream,0,0,1,0.9491830477753815
Garam Masala,Toulouse,"10 rue Maletache, 31000, Toulouse France",43.598503,1.444663,"Indian, Asian, Healthy",€€-€€€,4.5,697.0,naan kulfi rice thali lamb,"Vegetarian Friendly, Vegan Options, Gluten Free Options",,,naan kulfi rice thali lamb,3,1,1,0.292288620299338
Le Saint Augustin,Paris,"114 boulevard Haussmann, 75008 Paris France",48.874702,2.320496,"French, Bar, European",€€-€€€,3.0,341.0,pasta dishes snails croissants boulevard haussmann average brasserie,Vegetarian Friendly,,3.5,pasta dishes snails croissants boulevard haussmann average brasserie,5,0,1,0.0895664806115356
Restaurant Creperie Sel Et Sucre,Aubeterre-sur-Dronne,"Place Trarieux Aubeterre Sur Dronne, 16390 Aubeterre-sur-Dronne France",45.271446,0.170128,"French, European",€€-€€€,4.0,128.0,quiche galettes salad kids adults people watching,Vegetarian Friendly,,,quiche galettes salad kids adults people watching,0,1,0,-1.7345662470357412
La Voute,Saint-Martin-de-Belleville,"Chef Lieu, 73440, Les Belleville France",45.379906,6.504547,"French, European",€€-€€€,4.0,188.0,pasta snails raclette st martin old village,,"Takeout, Reservations, Outdoor Seating, Seating, Highchairs Available, Wheelchair Accessible, Serves Alcohol, Table Service, Full Bar",4.0,pasta snails raclette st martin old village,3,1,0,-0.6825934672111914
Le Comptoir des Marronniers,Lyon,"8 rue des Marronniers, 69002 Lyon France",45.756954,4.834692,"French, European",€€-€€€,4.0,760.0,salad cochon quenelle set menu course menu,,"Outdoor Seating, Accepts American Express, Accepts Mastercard, Accepts Visa, Seating, Wheelchair Accessible, Serves Alcohol, Accepts Credit Cards, Table Service",3.5,salad cochon quenelle set menu course menu,4,1,1,0.5218014100509444
Le Saint Cochon,Beaumontois-en-Perigord,"Lieu Dit au Marchay, 24440, Beaumontois-en-Perigord France",44.731716,0.744047,"French, Belgian, European",€€-€€€,5.0,212.0,fillet steak meat fish sunday lunch excellent meal excellent value money,,,,fillet steak meat fish sunday lunch excellent meal excellent value money,1,1,0,-0.21723584706754007
La Prevote,L'Isle-sur-la-Sorgue,"4 rue Jean Jacques Rousseau Derrière L'église, 84800, L'Isle-sur-la-Sorgue France",43.920063,5.052114,French,€€€€,4.5,649.0,duck bread lovely restaurant amuse bouche main course,"Vegetarian Friendly, Gluten Free Options",,4.5,duck bread lovely restaurant amuse bouche main course,4,1,1,1.9159033871310647
Le Pavé des Lombards,Paris,"7 rue des Lombards, 75004 Paris France",48.859055,2.349824,"French, European",€€-€€€,4.0,596.0,aligot tarte tatin duck fries saint jacques,Vegetarian Friendly,,4.0,aligot tarte tatin duck fries saint jacques,5,1,1,0.4725669394732189
L'Edito,Dijon,"2 Place Darcy, 21000, Dijon France",47.323303,5.034929,"French, Bar, European",€€-€€€,3.5,2257.0,burger moules salmon our waiter south france,"Vegetarian Friendly, Vegan Options",,3.5,burger moules salmon our waiter south france,3,0,1,0.34067652027001716
Crêperie Ty-Ru,Quimper,"11 rue du Salle Place au beurre, 29000, Quimper France",48.00122,-4.102937,French,€€-€€€,4.0,310.0,ham complet egg square cheese,"Vegetarian Friendly, Gluten Free Options",,4.5,ham complet egg square cheese,5,1,0,-0.3606976428058041
Le Brun,Paris,"95 rue Saint Honore, 75001 Paris France",48.861305,2.343216,"French, Healthy, European",€€-€€€,4.5,416.0,suckling pig octopus carpaccio pistachio cream sweet potato soup cochon,"Vegetarian Friendly, Vegan Options, Gluten Free Options",,,suckling pig octopus carpaccio pistachio cream sweet potato soup cochon,5,1,1,1.2215396742433962
MONBLEU Faubourg Montmartre,Paris,"37 rue du Faubourg Montmartre, 75009 Paris France",48.874195,2.34213,"French, European",€€-€€€,4.5,252.0,brunch cheese board cheeseburger bread potatoes,Vegetarian Friendly,,,brunch cheese board cheeseburger bread potatoes,5,1,1,0.7439341392083694
Le Montcabrien,Montchevrier,"le Bourg, 36140 Montchevrier France",46.480984,1.74203,"French, Gastropub, European, Pub",€€-€€€,4.5,81.0,risotto won t off beaten track vegetarian cheese,,,,risotto won t off beaten track vegetarian cheese,5,1,1,0.9984032006291435
Brasserie Lorraine,Paris,"2 Place des Ternes, 75008 Paris France",48.878117,2.298532,"French, Seafood, European, Gastropub",€€€€,3.5,1375.0,seafood clams choucroute fruits de mer escargot,,"Outdoor Seating, Seating, Valet Parking, Serves Alcohol, Reservations, Private Dining, Highchairs Available, Wheelchair Accessible, Full Bar, Free Wifi, Accepts Credit Cards, Table Service",3.5,seafood clams choucroute fruits de mer escargot,5,0,0,-0.39089648452280923
Hercule Poireau,Perigueux,"2 rue de la Nation, 24000, Perigueux France",45.184185,0.723042,"French, European",€€€€,4.5,542.0,poached pear amuse bouche foam dessert menus,,"Reservations, Private Dining, Seating, Highchairs Available, Wheelchair Accessible, Serves Alcohol, Accepts Credit Cards, Table Service",4.5,poached pear amuse bouche foam dessert menus,1,1,1,0.7959413033089657
Restaurant du Musee d'Orsay,Paris,"1 rue de la Legion D Honneur, 75007 Paris France",48.86025,2.325303,French,€€-€€€,4.0,1402.0,lunch salmon soup beautiful restaurant stunning room,Vegetarian Friendly,,4.5,lunch salmon soup beautiful restaurant stunning room,0,1,1,0.8191737863867627
Le Bon Pecheur,Paris,"9 rue des Precheurs 14 Rue Pierre Lescot, 75001 Paris France",48.862106,2.348346,"French, Bar, European",€€-€€€,4.5,344.0,fish chips onion soup snails burger decided give try,"Vegetarian Friendly, Vegan Options",,3.5,fish chips onion soup snails burger decided give try,5,1,0,-0.1136864110545951
Lobsta,Nice,"2 rue Halevy, 06000 Nice France",43.695583,7.265408,"American, Bar, Fast food, Mediterranean, Seafood",€€-€€€,4.5,296.0,lobster roll grilled cheese lobstah potatoes truffle,Vegetarian Friendly,"Takeout, Reservations, Outdoor Seating, Seating, Wheelchair Accessible, Serves Alcohol, Accepts Credit Cards, Table Service, Delivery, Wine and Beer, Free Wifi",,lobster roll grilled cheese lobstah potatoes truffle,5,1,1,1.0043750929670627
L'Ô à la Bouche,Cahors,"56 allee Francois de Fenelon, 46000, Cahors France",44.44508,1.440539,"French, European, Healthy",€€€€,4.5,815.0,macaroons salad special occasion great restaurant wine glass,Vegetarian Friendly,,4.0,macaroons salad special occasion great restaurant wine glass,2,1,1,0.1679327385831587
Gurtlerhoft,Strasbourg,"13 Place de la Cathedrale, 67000, Strasbourg France",48.581768,7.749418,"French, German, European",€€-€€€,4.0,1830.0,torte foie gras underground cellar cave cathedral,,,4.0,torte foie gras underground cellar cave cathedral,0,1,1,0.09132365201229797
Le Rejallant,Condac,"Aire de Detente Rejallant, 16700 Condac France",46.014725,0.216038,"French, European",€€€€,4.0,205.0,steak spoke english lovely setting visited friends excellent food,Vegetarian Friendly,,4.0,steak spoke english lovely setting visited friends excellent food,1,1,1,0.794443478429865
Le Chalets,Macot-la-Plagne,"Rue des Balcons Belle Plagne, 73210 Macot-la-Plagne, Aime France",45.50989,6.706074,"Pizza, French, Bar, European",€€-€€€,4.0,137.0,tartiflette belle plagne perfect family restaurant ski holiday jason,Vegetarian Friendly,,3.5,tartiflette belle plagne perfect family restaurant ski holiday jason,2,1,1,1.2073664056457085
Le Botaniste,Port-en-Bessin-Huppain,"Escures-Commes Chateau La Cheneviere, 14520 Port-en-Bessin-Huppain France",49.332863,-0.754816,"French, European",€€€€,4.5,144.0,tasting menu foie gras cheese trolley impeccable service dining experience,Vegetarian Friendly,"Outdoor Seating, Seating, Parking Available, Validated Parking, Free off-street parking, Wheelchair Accessible, Serves Alcohol, Full Bar, Wine and Beer, Accepts American Express, Accepts Mastercard, Accepts Visa, Free Wifi, Reservations, Private Dining, Table Service, Accepts Credit Cards",4.5,tasting menu foie gras cheese trolley impeccable service dining experience,4,1,1,1.5255363460405122
Boulangerie Patisserie Jeannot,Nice,"8 rue Saint Francois de Paule, 06300 Nice France",43.695724,7.272178,"French, Cafe, European",€,4.0,223.0,baguette flan great selection pastries light lunch spoke english,"Vegetarian Friendly, Vegan Options",,,baguette flan great selection pastries light lunch spoke english,1,1,1,0.8152461440907485
"Tsaretta Spice, Méribel",Meribel,"route de Morel Immeuble La Saulire, 73550 Meribel, Les Allues France",45.400955,6.570317,"Indian, Asian",€€-€€€,5.0,211.0,curry naan sea bass butter chicken prawns,"Vegetarian Friendly, Vegan Options, Gluten Free Options",,,curry naan sea bass butter chicken prawns,3,1,1,1.009780543071759
Fuxia,Marseille,"27 rue Saint Saens Place Thiars, 13001 Marseille France",43.29326,5.372845,"French, Italian, European",€€-€€€,3.5,1030.0,spaghetti bolognese prawns italian food vieux port nice restaurant,Vegetarian Friendly,,4.0,spaghetti bolognese prawns italian food vieux port nice restaurant,3,0,1,1.236130972730939
Le Grand Phenicien,Paris,"4 rue Caulaincourt, 75018 Paris France",48.884987,2.330025,"Lebanese, Mediterranean, Middle Eastern",€€-€€€,4.0,250.0,mixed grill falafel take away taste plate,"Vegetarian Friendly, Vegan Options, Halal",,4.0,mixed grill falafel take away taste plate,1,1,1,1.33670101217505
La Pomme de Pin,L'Alpe-d'Huez,"101 avenue des Jeux, 38750 L'Alpe-d'Huez France",45.09075,6.068022,"French, European",€€-€€€,4.0,562.0,tomorrow night hot stone last night vegetables waiter,Vegetarian Friendly,,4.0,tomorrow night hot stone last night vegetables waiter,1,1,1,0.8428136032004343
Plage de Passable,St-Jean-Cap-Ferrat,"Chemin de Passable, 06230 St-Jean-Cap-Ferrat France",43.693542,7.325223,"French, Mediterranean, European",€€-€€€,3.0,419.0,salad nice beach coastal walk our waiter wonderful meal,,"Reservations, Outdoor Seating, Seating, Serves Alcohol, Full Bar, Table Service, Beach",3.0,salad nice beach coastal walk our waiter wonderful meal,3,0,0,-0.06997107010759196
Le Moulin de la galette,Paris,"83 rue Lepic, 75018 Paris France",48.887398,2.337307,French,€€-€€€,4.0,895.0,chocolate mousse onion soup steak galettes set menu,Vegetarian Friendly,"Seating, Valet Parking, Serves Alcohol, Full Bar, Wine and Beer, Accepts American Express, Accepts Mastercard, Accepts Visa, Free Wifi, Outdoor Seating, Street Parking, Wheelchair Accessible, Accepts Credit Cards, Table Service",4.5,chocolate mousse onion soup steak galettes set menu,5,1,0,-0.6367322116637938
Hibou Deli,Chamonix,"416 rue Joseph Vallot, 74400, Chamonix France",45.92696,6.87014,"Healthy, Street Food",€,5.0,204.0,wraps flatbread satay mixed salad curries,"Vegetarian Friendly, Vegan Options, Gluten Free Options",,,wraps flatbread satay mixed salad curries,0,1,1,1.3062028433284216
Maison Drouot,Maussane-les-Alpilles,"18 impasse Michel Durand, 13520 Maussane-les-Alpilles France",43.721157,4.802582,French,€€€€,5.0,64.0,fixed menu his wife claire cuisine chef,,"Reservations, Seating, Serves Alcohol, Accepts Credit Cards, Table Service",,fixed menu his wife claire cuisine chef,4,1,1,1.4773125132155802
Cinnamon,Strasbourg,"15 rue de la Division Leclerc, 67000, Strasbourg France",48.579586,7.747997,"Indian, Healthy",€€-€€€,4.5,846.0,naan curry mixed starter shrimp best indian,"Vegetarian Friendly, Vegan Options, Gluten Free Options",,4.5,naan curry mixed starter shrimp best indian,3,1,1,1.740235906838234
Au Petit Suisse,Paris,"16 rue de Vaugirard, 75006 Paris France",48.84906,2.338914,"French, Bar, European",€€-€€€,4.5,528.0,onion soup croque soupe duck charcuterie,Vegetarian Friendly,"Reservations, Outdoor Seating, Seating, Serves Alcohol, Full Bar, Accepts Credit Cards, Table Service",4.0,onion soup croque soupe duck charcuterie,5,1,0,-0.3503669160382107
L'Ancienne Douane,Strasbourg,"6 rue de la Douane Au Bord de L'Ill et du Pont Corbeau, 67000, Strasbourg France",48.57936,7.75002,"French, European",€€-€€€,3.5,1423.0,tarte flambee flammkuchen potatoes custom house terrace overlooking river,,,3.0,tarte flambee flammkuchen potatoes custom house terrace overlooking river,4,0,0,-0.3917963764179141
Le Grand Balcon,Nice,"10 rue Saint Francois de Paule, 06300 Nice France",43.695805,7.27199,"French, Healthy",€€-€€€,4.0,872.0,truffle duck risotto cod old town,Vegetarian Friendly,,4.0,truffle duck risotto cod old town,2,1,1,0.29607456531188875
L'Avant Comptoir,Paris,"3 Carrefour de l’Odeon Sixth Arrondissement, 75006 Paris France",48.851948,2.338622,"French, Wine Bar",€€-€€€,4.5,924.0,tapas bread foie gras oysters beef,Vegetarian Friendly,"Serves Alcohol, Accepts Credit Cards",4.0,tapas bread foie gras oysters beef,5,1,1,1.0575078664232374
Chez Omar,Paris,"47 rue de Bretagne, 75003 Paris France",48.863506,2.361471,"Moroccan, Mediterranean, Middle Eastern, Tunisian",€€-€€€,3.5,633.0,couscous saturday lunch algerian waiters mechoui,Vegetarian Friendly,,3.5,couscous saturday lunch algerian waiters mechoui,1,0,1,0.30148118336479995
Au Relais des Ménétriers,Ribeauville,"10 avenue du General de Gaulle, 68150 Ribeauville France",48.1907,7.325017,"French, European",€€-€€€,4.5,515.0,cod gourmand menu excellent food service wines dessert,Vegetarian Friendly,,4.0,cod gourmand menu excellent food service wines dessert,3,1,1,1.2453899963969595
Le Mini-Grill,Cabris,"Place Chauve, 06530 Cabris, Grasse France",43.656517,6.871835,"French, Mediterranean, European",€€-€€€,4.0,206.0,moules salad carafe wine great atmosphere service french cuisine,,"Takeout, Reservations, Outdoor Seating, Seating, Wheelchair Accessible, Serves Alcohol, Table Service, Highchairs Available",4.0,moules salad carafe wine great atmosphere service french cuisine,3,1,1,0.34075868271039517
L'Entre 2,Bedoin,"Le Cours, 84410 Bedoin France",44.123924,5.18081,"French, European",€,4.0,108.0,lunch salad burger unfussy food during our stay,Vegetarian Friendly,,4.0,lunch salad burger unfussy food during our stay,2,1,1,0.9211451171626924
La Table 38,Saint-Emilion,"38 rue Guadet, 33330 Saint-Emilion France",44.893158,-0.155323,"French, European, Healthy",€€-€€€,4.5,603.0,burger confit bread excellent meal service excellent,Vegetarian Friendly,,4.0,burger confit bread excellent meal service excellent,1,1,1,0.6364520718629177
Un canard sous l'olivier,Ussel,"Lieu Dit le Pouzat A 20 Minutes au Nord de Cahors sur la D 820 et à 7 minutes de la Sortie 57 sur l'A20, 46240, Ussel France",44.59028,1.510833,"French, Mediterranean, European",€€-€€€,5.0,274.0,canard beautiful restaurant last night service excellent lunch menu,Vegetarian Friendly,,,canard beautiful restaurant last night service excellent lunch menu,1,1,1,2.4541184808595977
Le Trefle a 4 Feuilles,Siorac-en-Perigord,"173/174 Rue de la Gare, 24170 Siorac-en-Périgord France",44.821648,0.987689,"French, European",€€-€€€,4.5,281.0,foie gras friday evening lovely restaurant excellent food service ate here,Vegetarian Friendly,,4.5,foie gras friday evening lovely restaurant excellent food service ate here,1,1,1,0.5678857324865415
L ' Arbre de Vie,Val d'Isere,"9 Immeuble des Cimes 9 Immeuble Des Cimes, 73150 Val d'Isère France",45.451008,6.976701,French,€€-€€€,4.5,250.0,tagine falafel salad steak prawns pastry,"Vegetarian Friendly, Vegan Options","Reservations, Seating, Wheelchair Accessible, Serves Alcohol, Wine and Beer, Accepts American Express, Accepts Mastercard, Accepts Visa, Accepts Discover, Accepts Credit Cards, Table Service, Highchairs Available, Full Bar, Free Wifi",4.0,tagine falafel salad steak prawns pastry,0,1,1,1.3691869416540134
LES OMBRES Quai Branly,Paris,"27 quai Branly (Dépose taxi au 206 rue de l'Université), 75007 Paris France",48.86106,2.298549,"French, Contemporary, Pub, Gastropub",€€€€,4.0,2600.0,scallops beef eiffel tower food wine champagne,Vegetarian Friendly,"Reservations, Outdoor Seating, Seating, Parking Available, Wheelchair Accessible, Serves Alcohol, Full Bar, Accepts Credit Cards, Table Service, Non-smoking restaurants, Gift Cards Available",4.0,scallops beef eiffel tower food wine champagne,3,1,1,0.36099475916814916
Chez Rene Socca,Nice,"1 rue Pairoliere, 06300 Nice France",43.700123,7.278917,"French, Mediterranean, European",€,3.5,1124.0,zucchini flowers wooden tables cold beer mocca plate,Vegetarian Friendly,,3.5,zucchini flowers wooden tables cold beer mocca plate,5,0,1,0.8939602189813296
Le Fouquet's,Paris,"99 avenue des Champs Elysees, 75008 Paris France",48.871876,2.300924,French,€€€€,4.0,1949.0,onion soup mille feuille champs elysees people watching champagne,"Vegetarian Friendly, Vegan Options",,4.0,onion soup mille feuille champs elysees people watching champagne,0,1,0,-1.385670403870538
Chez Julien,Paris,"1 rue du Pont Louis Philippe, 75004 Paris France",48.8546,2.355019,"French, European",€€€€,3.5,875.0,chateaubriand foie gras start steak fries ravioli pepper sauce,Vegetarian Friendly,,4.0,chateaubriand foie gras start steak fries ravioli pepper sauce,0,0,0,-0.7838504997740342
The Soul Kitchen,Les Deux-Alpes,"2 rue de l Irarde, 38860 Les Deux-Alpes France",45.00643,6.122873,"French, International, European",€€-€€€,5.0,127.0,fondue small menu vegetarian chalet chef,"Vegetarian Friendly, Gluten Free Options",,,fondue small menu vegetarian chalet chef,0,1,1,2.98785283973024
Le Petit Peche,Roujan,"8 avenue de Caux, 34320 Roujan France",43.504856,3.313064,"French, European",€€-€€€,4.0,199.0,steak tartare seafood menu france,,"Reservations, Outdoor Seating, Seating, Highchairs Available, Wheelchair Accessible, Serves Alcohol, Full Bar, Accepts Credit Cards, Table Service",3.5,steak tartare seafood menu france,4,1,1,0.3563124800204858
Le Petit Lascaris,Nice,"5 rue Droite Old Town, 06300 Nice France",43.698215,7.277622,"French, European",€€-€€€,4.0,428.0,pasta house wine chef vinaigrette leek,Vegetarian Friendly,,4.5,pasta house wine chef vinaigrette leek,4,1,1,0.6966162942977605
Le Cercle,Auxerre,"68 rue de Paris, 89000, Auxerre France",47.797104,3.569201,"Moroccan, Mediterranean, Middle Eastern, Tunisian",€€-€€€,4.5,211.0,lamb bread tagine nice service great food,"Vegetarian Friendly, Vegan Options, Gluten Free Options",,4.5,lamb bread tagine nice service great food,3,1,1,1.3386220983785475
Udon Bistro Kunitoraya,Paris,"1 rue Villedo, 75001 Paris France",48.866016,2.336886,"Japanese, Asian, Soups",€€-€€€,4.0,454.0,udon beef curry tapas small restaurant neighborhood,"Vegetarian Friendly, Vegan Options",,3.5,udon beef curry tapas small restaurant neighborhood,3,1,1,1.8688875314833941
Le Wepler,Paris,"14 Place de Clichy, 75018 Paris France",48.883682,2.327747,"French, Seafood, European, Healthy",€€-€€€,4.0,1699.0,seafood clams fruits de mer whelks sauerkraut,Vegetarian Friendly,"Takeout, Seating, Serves Alcohol, Full Bar, Outdoor Seating, Highchairs Available, Wheelchair Accessible, Free Wifi, Accepts Credit Cards, Table Service",3.5,seafood clams fruits de mer whelks sauerkraut,5,1,0,-0.30178044130041304
Le Bistrot 1903,Talloires,"303 Route du Port, 74290 Talloires France",45.839447,6.210689,"French, European, Pub, Gastropub",€€€€,4.0,491.0,jean sulpice main course beautiful location dessert lake,,,,jean sulpice main course beautiful location dessert lake,4,1,1,0.0763957890851873
Illia Pasta,Nice,"4 rue Droite, 06300 Nice France",43.698235,7.277685,"Italian, Mediterranean, Street Food, Diner",€,4.5,736.0,bolognese fresh pasta ratatouille old town small restaurant,"Vegetarian Friendly, Vegan Options",,,bolognese fresh pasta ratatouille old town small restaurant,3,1,1,1.935206944230254
The Wine Factory,Les Houches,"19 Place de la Mairie, 74310 Les Houches, Chamonix France",45.88972,6.797897,"French, Brew Pub, Wine Bar",€€-€€€,5.0,126.0,cold meats different wines fantastic wine bar perfect spot relaxed atmosphere,,,,cold meats different wines fantastic wine bar perfect spot relaxed atmosphere,2,1,1,0.5934970613180748
Le Sanboulou,Meze,"Quai Baptiste Guitard Les Rives du Port, 34140 Meze France",43.423073,3.606916,"French, Mediterranean, Grill, European",€€-€€€,4.0,135.0,crepes oysters course menu waterfront menus,,,,crepes oysters course menu waterfront menus,5,1,1,0.01602306502815798
Le Cafe Zephyr,Paris,"12 boulevard Montmartre, 75009 Paris France",48.871742,2.34185,"French, Bar, Cafe, European",€€-€€€,3.5,461.0,baguette croissants french breakfast leisurely lunch people watching,Vegetarian Friendly,,3.5,baguette croissants french breakfast leisurely lunch people watching,5,0,0,-0.7156098186302285
Le Cul De Poule,Avignon,"2 Place des Carmes, 84000, Avignon France",43.95018,4.813331,"French, Mediterranean, European",€€-€€€,4.0,346.0,salad beef carpaccio fries potatoes plat du jour,"Vegetarian Friendly, Vegan Options",,4.0,salad beef carpaccio fries potatoes plat du jour,2,1,1,0.14964852887363056
Le Belvedere,Les Gets,"Au Sommet de la Telecabine du Mont-Chery, 74260 Les Gets France",46.165394,6.658268,"French, Fast food",€€-€€€,4.0,129.0,lunch mont chery stupendous valley views,,,3.5,lunch mont chery stupendous valley views,0,1,1,0.8408781247194792
Le Moulin De La Galette,Bayeux,"38 rue de Nesmond Impasse du Moulin de Coisel, 14400, Bayeux France",49.273846,-0.701007,"French, European, Healthy",€€-€€€,4.5,1824.0,galettes dessert crepes gallette ham burger,"Vegetarian Friendly, Vegan Options, Gluten Free Options","Outdoor Seating, Seating, Parking Available, Highchairs Available, Wheelchair Accessible, Serves Alcohol, Full Bar, Wine and Beer, Accepts Mastercard, Accepts Visa, Free Wifi, Reservations, Street Parking, Accepts Credit Cards, Table Service, Waterfront",4.5,galettes dessert crepes gallette ham burger,5,1,0,-0.692901322250887
Huguette Bistro de la Mer,Paris,"81 rue de Seine, 75006 Paris France",48.853233,2.336965,"French, Seafood",€€-€€€,4.0,694.0,oysters soupe de poisson grilled dorado razor clams octopus,,"Reservations, Outdoor Seating, Seating, Wheelchair Accessible, Serves Alcohol, Full Bar, Accepts Credit Cards, Table Service",,oysters soupe de poisson grilled dorado razor clams octopus,5,1,0,-0.6126408504151512
Da Marco,Lourdes,"47 rue de la Grotte, 65100, Lourdes France",43.095055,-0.048635,"Italian, Pizza, Mediterranean, European",€€-€€€,4.5,863.0,pizza pasta dishes great atmosphere friendly service place eat,"Vegetarian Friendly, Vegan Options",,4.0,pizza pasta dishes great atmosphere friendly service place eat,3,1,1,0.18260516723295683
La Garenne,Huby-Saint-Leu,"On the Intersection of avenue Jean Moulin And avenue du Gen Leclerc in Huby St Leu Hesdin, 62140 Huby-Saint-Leu France",50.382263,2.038529,"French, European",€€-€€€,4.5,264.0,steak foie gras perfect evening service excellent wine list,,"Reservations, Outdoor Seating, Private Dining, Seating, Wheelchair Accessible, Serves Alcohol, Full Bar, Accepts Credit Cards, Table Service, Highchairs Available",4.5,steak foie gras perfect evening service excellent wine list,4,1,1,0.9193414299143721
Romantica Caffe Invalides,Paris,"96 boulevard de la Tour Maubourg, 75007 Paris France",48.854206,2.309756,"Italian, Mediterranean, European",€€-€€€,4.0,273.0,pasta flambe cheese wheel leggera museum,Vegetarian Friendly,,3.5,pasta flambe cheese wheel leggera museum,1,1,0,-0.3455173387868583
CIBO Pizzeria,Biarritz,"51 Bis Rue Gambetta, 64200 Biarritz France",43.479168,-1.564244,"Italian, Pizza, European",€€-€€€,4.5,587.0,cibo pizza small menu friendly service ingredients,"Vegetarian Friendly, Vegan Options",,,cibo pizza small menu friendly service ingredients,3,1,1,1.6378113046080345
Auberge Des Chasseurs,Echenevex,"Naz Dessus, 01170 Echenevex France",46.304565,6.027742,"French, European",€€€€,4.0,128.0,ice cream mont blanc food wine main course volaille,,"Reservations, Outdoor Seating, Seating, Parking Available, Validated Parking, Wheelchair Accessible, Serves Alcohol, Table Service",4.0,ice cream mont blanc food wine main course volaille,0,1,1,0.9619413527425433
Auberge de la Feuille d'Erable,Sixt-Fer-a-Cheval,"Chef Lieu, 74740 Sixt-Fer-a-Cheval France",46.054363,6.77571,French,€€-€€€,4.5,244.0,fondue steak porcini great evening cream,,"Reservations, Outdoor Seating, Seating, Highchairs Available, Wheelchair Accessible, Serves Alcohol, Table Service",4.5,fondue steak porcini great evening cream,0,1,1,0.8723130389825835
La Table De Nathalie Porto-Vecchio,Porto-Vecchio,"4 rue Jean Jaures, 20137, Porto-Vecchio, Corsica France",41.59018,9.277196,"French, Mediterranean, European, Healthy",€€€€,4.5,1464.0,steak seafood pork fabulous food book advance,Vegetarian Friendly,,4.0,steak seafood pork fabulous food book advance,0,1,1,1.669908927649733
Le Taj Mahal,Royan,"126 rue Gambetta 17200, 17200, Royan France",45.622124,-1.030518,"Indian, Pakistani",€€-€€€,4.0,177.0,curries rice indian food spicier spicy,"Vegetarian Friendly, Vegan Options",,3.5,curries rice indian food spicier spicy,3,1,1,0.8562014869421146
Le Clou,Strasbourg,"3 rue du Chaudron Dans Le Quartier Du Carre D'Or, 67000, Strasbourg France",48.58268,7.749022,"French, European",€€-€€€,4.0,1072.0,sauerkraut choucroute ham foie gras kidney,,"Reservations, Seating, Highchairs Available, Serves Alcohol, Accepts Credit Cards, Table Service",4.0,sauerkraut choucroute ham foie gras kidney,5,1,0,-0.8337320942744145
McDonalds Disneyland Paris,Chessy,"ZAC dit du Parc et du Centre Touristique Lieu dit Disney Village, 77700 Chessy, Marne-la-Vallee France",48.869537,2.783529,"American, Fast food",€,3.0,435.0,doughnuts chicken cheapest place eat lunch time mccafe,,"Takeout, Outdoor Seating, Seating, Highchairs Available, Wheelchair Accessible, Free Wifi, Accepts Credit Cards",,doughnuts chicken cheapest place eat lunch time mccafe,0,0,1,0.87637306254126
JR Bistronomie,Menton,"11 rue Trenca, 06500, Menton France",43.775555,7.504564,"French, European, Healthy",€€-€€€,5.0,153.0,lamb business lunch absolute fabulous food hugo,,,,lamb business lunch absolute fabulous food hugo,1,1,1,1.3897304835662263
Lanterne Rouge,Pontivy,"rue Joseph Quilliou, 56300 Pontivy France",48.04108,-2.9577,"Chinese, Asian",€,4.0,130.0,your choice all you can eat buffet style sauce euros,Vegetarian Friendly,,4.0,your choice all you can eat buffet style sauce euros,2,1,0,-0.5105992331070451
Villa Tri Men,Sainte-Marine,"16 Rue du Phare Sainte-Marine, Combrit, 29120 Sainte-Marine, Combrit France",47.87258,-4.117876,"French, European",€€€€,4.5,240.0,tasting menu turbot lobster michelin star great chef,,,4.5,tasting menu turbot lobster michelin star great chef,4,1,1,2.8158114413971003
Restaurant la Cote de Boeuf du Vieux Bordeaux,Bordeaux,"13 rue des Faussets Numero de la Suite, Intersection, Place, 33000, Bordeaux France",44.840416,-0.570503,"French, European",€€-€€€,3.5,583.0,steak cooked perfectly set menu marrow euros,,"Reservations, Outdoor Seating, Seating, Highchairs Available, Serves Alcohol, Accepts Credit Cards, Table Service",3.0,steak cooked perfectly set menu marrow euros,4,0,1,0.15547085084815226
Le Comptoir Nature,Le Somail,"Chemin de Halage, 1, 11120 Le Somail France",43.266,2.9044,"Mediterranean, French, European",€€-€€€,4.0,554.0,canal du friendly service vegetarian dishes highly recommend restaurant france,"Vegetarian Friendly, Vegan Options, Gluten Free Options",,4.5,canal du friendly service vegetarian dishes highly recommend restaurant france,0,1,1,1.3196452965061085
Le Sâotico,Paris,"96 rue de Richelieu, 75002 Paris France",48.870598,2.339446,"Gastropub, French, European",€€-€€€,4.5,983.0,duck confit steak salad english menu main course,"Vegetarian Friendly, Vegan Options, Gluten Free Options","Delivery, Takeout, Seating, Wheelchair Accessible, Serves Alcohol, Full Bar, Accepts Mastercard, Accepts Visa, Free Wifi, Reservations, Accepts American Express, Accepts Credit Cards, Table Service, Wine and Beer, Digital Payments, Dog Friendly",4.5,duck confit steak salad english menu main course,5,1,1,0.9896283960021477
Le Campanella,Paris,"18 avenue Bosquet Angle Avenue Bosquet et Rue Saint-Dominique, 75007 Paris France",48.8587,2.303344,"French, European",€€-€€€,4.0,663.0,beef bourguignon salad quiche lorraine frog legs snails,Vegetarian Friendly,,4.0,beef bourguignon salad quiche lorraine frog legs snails,5,1,0,-1.4192451647234705
Le Toucan,Paris,"226 rue de Vaugirard, 75015 Paris France",48.840557,2.304929,"French, European, Diner, Dining bars",€€-€€€,4.0,280.0,steak bread scallops potatoes ham,,,4.5,steak bread scallops potatoes ham,5,1,1,0.8835726434881856
Indie Beach,Ramatuelle,"Route de Bonne Terrasse Pampelonne Beach, 83350 Ramatuelle, Saint-Tropez France",43.213455,6.663603,"French, Mediterranean, European",€€-€€€,4.0,306.0,excellent price excellent dinner st tropez friendly service quality food,Vegetarian Friendly,,,excellent price excellent dinner st tropez friendly service quality food,3,1,1,0.2454969344994088
Kitsch Inn,Les Houches,"77 Place de la Fruitiere, 74310 Les Houches, Chamonix France",45.889442,6.788735,"Bar, British, Pub",€€-€€€,4.5,366.0,fish chips burger live music great atmosphere daily specials,"Vegetarian Friendly, Vegan Options, Gluten Free Options",,4.5,fish chips burger live music great atmosphere daily specials,2,1,0,-0.04360944797452804
La Grand’Vigne,Martillac,"Chemin de Smith Haut-Lafitte Les Sources de Caudalie, 33650 Martillac France",44.730804,-0.557221,"French, European",€€€€,4.5,494.0,tasting menu advance star restaurant wonderful experience la carte menu,"Vegetarian Friendly, Vegan Options, Gluten Free Options","Reservations, Outdoor Seating, Private Dining, Seating, Parking Available, Validated Parking, Highchairs Available, Wheelchair Accessible, Serves Alcohol, Full Bar, Free Wifi, Accepts Credit Cards, Table Service",4.5,tasting menu advance star restaurant wonderful experience la carte menu,4,1,1,2.6474648430137933
La Maison,Les Eyzies-de-Tayac-Sireuil,"15 avenue de la Prehistoire, 24620 Les Eyzies-de-Tayac-Sireuil France",44.93587,1.013203,"French, Healthy",€€-€€€,4.5,724.0,tournedos prawns duck escargot steak,"Vegetarian Friendly, Vegan Options",,,tournedos prawns duck escargot steak,5,1,1,0.5683026177620788
Bombay,Montpellier,"6 Rue Pila St Gély, 34000, Montpellier France",43.613197,3.879628,Indian,€€-€€€,4.0,231.0,curry thali mint tea indian france,"Vegetarian Friendly, Halal",,3.0,curry thali mint tea indian france,3,1,1,1.380534976439452
BoboLivo,Marseille,"29 rue Caisserie, 13002 Marseille France",43.29665,5.366878,"Argentinian, French",€€-€€€,4.5,453.0,lamb shank pizza excellent food meat waiters,Vegetarian Friendly,,4.0,lamb shank pizza excellent food meat waiters,1,1,0,-0.6709989856567297
Di Più,Nice,"85 quai des Etats Unis, 06300 Nice France",43.695274,7.273355,"Mediterranean, Italian, European",€€-€€€,4.0,1808.0,pasta eclairs salmon bread great italian food,"Vegetarian Friendly, Vegan Options",,4.0,pasta eclairs salmon bread great italian food,3,1,1,0.576870897821341
La Cave des Creux,Courchevel,"Ski Slope La Cave des Creux, 73120, Courchevel France",45.389614,6.633578,"European, French, Gastropub",€€-€€€,4.5,265.0,lunch burger lemon meringue pie pasta fondue,"Vegetarian Friendly, Vegan Options, Gluten Free Options",,4.5,lunch burger lemon meringue pie pasta fondue,5,1,1,0.9001858226066022
Chez Max,Magenta,"13 avenue Alfred Anatole Thevenet 11 minutes à pied du centre d'Epernay, 51530 Magenta France",49.04756,3.964958,"European, Healthy",€€-€€€,4.5,987.0,cheese board scallops duck french restaurant epernay,Vegetarian Friendly,,4.0,cheese board scallops duck french restaurant epernay,5,1,1,1.570091734113506
La moulerie,Ouistreham,"5 Place Alfred Thomas 5 place Alfred thomas, 14150 Ouistreham France",49.288445,-0.258791,"French, Seafood, European, Healthy",€€-€€€,4.0,1798.0,moules goujons oysters easy parking ferry port,,,4.0,moules goujons oysters easy parking ferry port,5,1,1,0.46176274047158206
Le Coq d'Or,Cognac,"33 Place Francois 1 er, 16100 Cognac France",45.69311,-0.325265,"Bar, Seafood, French, European",€€-€€€,4.0,743.0,steak choucroute oysters duck cognac distillery,,,4.0,steak choucroute oysters duck cognac distillery,5,1,1,0.17251725789199768
1580m,Sainte-Foy-Tarentaise,"1580m, Les Arandelieres Bonconseil Dessus, 73640 Sainte-Foy-Tarentaise France",45.575794,6.89655,"International, Beer restaurants",€€-€€€,5.0,52.0,pork belly curries chowder malaysian curry homemade ice cream,"Vegetarian Friendly, Vegan Options",,,pork belly curries chowder malaysian curry homemade ice cream,0,1,1,1.0766585800019093
La Pomme de Pin,Ramatuelle,"603 route de Tahiti Quartier du Pinet, 83350 Ramatuelle, Saint-Tropez France",43.247517,6.662281,"Italian, Neapolitan, Campania, Tuscan, Central-Italian, Southern-Italian",€€-€€€,4.5,2417.0,pizza seafood linguine salad italian food saint tropez,"Vegetarian Friendly, Vegan Options",,4.0,pizza seafood linguine salad italian food saint tropez,0,1,1,0.26670339112726493
L'Auberge Fleurie,Fayence,"16 route de l Aerodrome Quartier Saint Eloi, 83440, Fayence France",43.621727,6.69105,"French, Seafood, European",€€-€€€,4.0,532.0,sole seafood moules frites served perfectly summer evening,,"Outdoor Seating, Seating, Validated Parking, Serves Alcohol, Accepts Mastercard, Accepts Visa, Reservations, Parking Available, Highchairs Available, Wheelchair Accessible, Full Bar, Accepts Credit Cards, Table Service",3.5,sole seafood moules frites served perfectly summer evening,5,1,0,-0.5213575948546098
le Canon,Nice,"23 rue Meyerbeer, 06000 Nice France",43.697056,7.260419,"French, European",€€-€€€,4.0,297.0,lamb french cooking chef waiter blackboard,,"Reservations, Seating, Wheelchair Accessible, Serves Alcohol, Accepts Credit Cards, Table Service",3.5,lamb french cooking chef waiter blackboard,4,1,1,0.6876005185098037
Comice,Paris,"31 avenue de Versailles, 75016 Paris France",48.84963,2.276239,"French, European",€€€€,4.5,111.0,tasting menu bread cakes sommelier chef,Gluten Free Options,,,tasting menu bread cakes sommelier chef,4,1,1,1.8932877378882842
La Griglia,Nice,"33 rue Pairoliere, 06300 Nice France",43.69923,7.278694,"Italian, Mediterranean, European",€€-€€€,4.5,400.0,tagliata flatbread grilled vegetables himalayan salt old town,"Vegetarian Friendly, Vegan Options, Gluten Free Options",,4.0,tagliata flatbread grilled vegetables himalayan salt old town,5,1,1,1.1087327313717494
Restaurant Georgette,Paris,"44 rue d Assas 44, Rue d'Assas, 75006 Paris France",48.847176,2.32999,"French, European, Gastropub",€€-€€€,4.5,534.0,chorizo salad sticky rice poached eggs prawns,Vegetarian Friendly,,4.0,chorizo salad sticky rice poached eggs prawns,1,1,1,0.7097055927577046
Le Rohtang Pass,Toulouse,"1 B rue Jules Chalande, 31000, Toulouse France",43.602367,1.443858,Indian,€€-€€€,4.5,365.0,chicken curry indian food best indian take away,"Vegetarian Friendly, Vegan Options, Gluten Free Options",,,chicken curry indian food best indian take away,3,1,1,1.2221118058815152
"L'Entente, Le British Brasserie",Paris,"13 rue Monsigny, 75002 Paris France",48.869144,2.33539,"British, Healthy, Gastropub",€€-€€€,4.5,299.0,brunch pie triple cooked chips scotch egg horseradish cream,"Vegetarian Friendly, Gluten Free Options",,,brunch pie triple cooked chips scotch egg horseradish cream,2,1,1,1.4522536268579183
La Vetrata,Les Deux-Alpes,"44 avenue de la Muzelle, Les Deux-Alpes France",45.013954,6.124657,"Italian, Pizza, European",€€-€€€,4.0,178.0,pizza ice cream visited restaurant ski holiday food amazing,,"Takeout, Reservations, Outdoor Seating, Seating, Highchairs Available, Serves Alcohol, Table Service",3.5,pizza ice cream visited restaurant ski holiday food amazing,0,1,1,1.5439453179488947
Le Forum,Orange,"3 rue du Mazeau, 84100 Orange France",44.136253,4.807565,"French, European",€€€€,4.0,336.0,french desserts gazpacho tuna cafe gourmand starters,,,4.0,french desserts gazpacho tuna cafe gourmand starters,3,1,1,1.5203705313423845
Auberge de la Truffe,Sorges,"14 rue Chateaureynaud, 24420 Sorges France",45.3072,0.873865,"French, Gastropub",€€€€,4.5,577.0,truffe truffle food wine grand marnier lovely evening,Vegetarian Friendly,,4.0,truffe truffle food wine grand marnier lovely evening,1,1,1,0.34405429245405167
The Red Frog,Les Deux-Alpes,"1 Place de Venosc, 38860 Les Deux-Alpes France",45.004612,6.121703,"Bar, British, Pub",€,4.0,162.0,great pub friendly staff good beer irish pub end day sports,,"Outdoor Seating, Seating, Television, Serves Alcohol, Full Bar, Free Wifi",4.0,great pub friendly staff good beer irish pub end day sports,1,1,1,1.8244004110837846
Johns American,Val Thorens,"Grande Rue Quartier Peclet Imm. Les 3 Vallées, 73440 Val Thorens, Les Belleville France",45.296894,6.583954,"Mexican, American",€€-€€€,4.0,303.0,ribs burger great food week france,,"Takeout, Reservations, Seating, Serves Alcohol, Free Wifi, Accepts Credit Cards, Table Service",3.5,ribs burger great food week france,3,1,1,1.300954909317583
Le Cafe Francais,Bordeaux,"5 Place Pey Berland 33000, 33000, Bordeaux France",44.83808,-0.578141,"French, Cafe, European",€€-€€€,3.5,696.0,caesar salad our waiter cathedral pey waiters,,,3.5,caesar salad our waiter cathedral pey waiters,5,0,0,-0.8076567919680423
La Cabane du Mimbeau,Cap-Ferret,"28 avenue de la Conche, 33970 Cap-Ferret, Lege-Cap-Ferret France",44.63737,-1.245937,"French, Seafood, Healthy",€€-€€€,4.5,623.0,oysters bread beautiful view tide cabane,,,5.0,oysters bread beautiful view tide cabane,4,1,1,0.2628760432790089
le Kaiku,Saint-Jean-de-Luz,"17 Rue de la Republique, 64500 Saint-Jean-de-Luz France",43.388554,-1.664401,"French, European",€€€€,4.5,1338.0,amuse bouche langoustines mignardises white asparagus crab,Vegetarian Friendly,,4.5,amuse bouche langoustines mignardises white asparagus crab,4,1,1,1.1561166434626269
Chez Pierrot,Paris,"18 rue Etienne Marcel Metro Etienne Marcel, 75002 Paris France",48.86402,2.348449,"French, European",€€-€€€,4.5,274.0,filet mignon main course friendly service waiter desert,Vegetarian Friendly,,4.5,filet mignon main course friendly service waiter desert,4,1,1,1.1792066438776534
Fiston,Lyon,"44 rue Merciere, 69002 Lyon France",45.762993,4.832735,"French, European, Healthy",€€-€€€,4.5,1133.0,onion soup scallops tartelette potatoes cafe gourmand,Vegetarian Friendly,,,onion soup scallops tartelette potatoes cafe gourmand,5,1,1,0.5686728243895035
Lou Camillou,Saint-Leon-sur-Vezere,"le Bourg, 24290 Saint-Leon-sur-Vezere, Montignac France",45.0108,1.08914,"American, French",€,4.5,104.0,lunch burger salad great food order,"Vegetarian Friendly, Vegan Options, Gluten Free Options",,,lunch burger salad great food order,1,1,1,0.8556834340668014
Le Bistrot de Biarritz (Le B2),Biarritz,"5 rue du Centre, 64200 Biarritz France",43.480602,-1.562344,"Seafood, French, Healthy",€€-€€€,4.5,823.0,sea bass foie gras monday evening excellent food nice atmosphere,,,4.0,sea bass foie gras monday evening excellent food nice atmosphere,1,1,1,0.6763342506815764
Clover Grill,Paris,"6 rue Bailleul, 75001 Paris France",48.861004,2.341931,"Grill, French, Steakhouse, European",€€€€,4.0,441.0,churros pineapple bone marrow steak carbonara,,"Reservations, Private Dining, Seating, Wheelchair Accessible, Serves Alcohol, Full Bar, Accepts Credit Cards, Table Service",,churros pineapple bone marrow steak carbonara,5,1,0,-0.2062378760068212
Le Chalet,Domme,"D703, 24250 Domme France",44.826523,1.225464,"French, Bar, European",€€-€€€,3.5,315.0,steak pizza omelette river perfect spot,,"Reservations, Outdoor Seating, Seating, Parking Available, Highchairs Available, Wheelchair Accessible, Serves Alcohol, Full Bar, Table Service, Validated Parking",4.5,steak pizza omelette river perfect spot,2,0,1,0.08804229123016116
Beau Sejour,Sainte-Suzanne,"Rue de la Liberation, 53270 Sainte-Suzanne, Sainte-Suzanne-et-Chammes France",48.098248,-0.352507,"French, European",€€-€€€,4.5,115.0,cheese board dishes dessert menu table,,"Reservations, Seating, Wheelchair Accessible, Serves Alcohol, Table Service, Highchairs Available",3.5,cheese board dishes dessert menu table,4,1,1,0.19497708364484734
Brasserie d'en face,Arromanches-les-Bains,"2 rue du petit Fontaine, 14117 Arromanches-les-Bains France",49.34459,-0.621974,"French, Bar, European",€€-€€€,4.0,708.0,scallops great moules friendly service centre town choice food,Vegetarian Friendly,,4.0,scallops great moules friendly service centre town choice food,3,1,1,0.7180883309584667
Tartine et galinette,Nice,"31 rue Bonaparte, 06300 Nice France",43.700672,7.284324,"Pizza, Fast food, European",€,5.0,411.0,pizza cakes great taste crispy ingredients,"Vegetarian Friendly, Vegan Options",,,pizza cakes great taste crispy ingredients,1,1,1,2.041276647253541
Madito,Paris,"12 rue de Candie, 75011 Paris France",48.849976,2.381238,"Lebanese, Mediterranean, Middle Eastern",€€-€€€,5.0,233.0,lebanese restaurant set menu middle eastern food amazing food service super tasty,Vegetarian Friendly,,,lebanese restaurant set menu middle eastern food amazing food service super tasty,0,1,1,0.6095017337012911
Le Bouche A Oreille,Simorre,"Grand rue Paul Saint Martin Place de la Mairie, 32420 Simorre France",43.45003,0.734325,"French, European, Wine Bar, Fusion, Gastropub",€€-€€€,4.5,137.0,delicious food five courses concert vegetables atmosphere,Vegetarian Friendly,,,delicious food five courses concert vegetables atmosphere,1,1,1,1.802845933627431
Saumur 1929,Saumur,"52 rue Saint Nicolas, 49400, Saumur France",47.26103,-0.079881,"French, European",€,4.5,557.0,tapas pied de cochon pigs feet delicious food must visit if you,"Vegetarian Friendly, Vegan Options, Gluten Free Options",,,tapas pied de cochon pigs feet delicious food must visit if you,2,1,1,0.34162106607636444
Comptoir de la Gastronomie,Paris,"34 rue Montmartre, 75001 Paris France",48.864574,2.345303,"French, European",€€-€€€,4.5,1279.0,foie gras ravioli mashed potatoes french onion soup visit paris yelp,Gluten Free Options,"Outdoor Seating, Seating, Serves Alcohol, Wine and Beer, Accepts American Express, Accepts Mastercard, Accepts Visa, Reservations, Wheelchair Accessible, Accepts Credit Cards, Table Service",4.0,foie gras ravioli mashed potatoes french onion soup visit paris yelp,5,1,1,0.30334303951450914
Bistro Regent Toulouse - Bd Strasbourg,Toulouse,"14 boulevard de Strasbourg, 31000, Toulouse France",43.606922,1.447479,French,€€-€€€,3.5,621.0,green salad unlimited fries grilled duck steak sauce,,,4.0,green salad unlimited fries grilled duck steak sauce,5,0,0,-0.5123078907831272
Le Petit Lindaret,Montriond,"Les Lindarets Montriond, Avoriaz, Morzine, Portes du Soleil, 74110 Montriond, Morzine France",46.210957,6.774072,"French, European",€€-€€€,4.5,127.0,lunch goat salad plat du jour two days,Vegetarian Friendly,,4.5,lunch goat salad plat du jour two days,2,1,1,0.15781050250475648
Le Marsala,Bayeux,"17 rue des Cuisiniers, 14400, Bayeux France",49.27661,-0.703835,"Italian, European",€€-€€€,3.5,713.0,masala pizza salad chocolate mousse mussels,Vegetarian Friendly,,3.5,masala pizza salad chocolate mousse mussels,5,0,1,0.14518954754281033
"Ar Men Du, Restaurant Gastronomique face à la mer",Nevez,"Raguenez Plage 47 rue des Iles Ar Men Du Hotel et Restaurant gastronomique, 29920 Nevez France",47.788914,-3.799861,"French, European",€€€€,4.5,406.0,family group sommelier wines anniversary knowledge,Vegetarian Friendly,,4.0,family group sommelier wines anniversary knowledge,1,1,1,1.3965237556582926
L'Escale,Cap-Ferret,"Jetee Belisaire, 33970 Cap-Ferret, Lege-Cap-Ferret France",44.65653,-1.239378,"French, Seafood, European, Healthy",€€-€€€,4.0,2824.0,seafood duck confit sole moules arcachon bay,Vegetarian Friendly,,4.0,seafood duck confit sole moules arcachon bay,5,1,1,0.14925770387183956
Lou Baitandys Bar Restaurant,Les Gets,"224 route du Front de Neige 74260, 74260 Les Gets France",46.1575,6.66873,French,€€-€€€,3.0,56.0,escargot salad sunny day friendly service chavannes,,"Reservations, Seating, Serves Alcohol, Table Service, Wheelchair Accessible",,escargot salad sunny day friendly service chavannes,2,0,1,1.0364940526480777
La Bisqu'in,Beauvoir,"32 route du Mont Saint Michel, 50170 Beauvoir France",48.596676,-1.512543,"French, Seafood, European",€€-€€€,4.0,331.0,fish soup ham mont st michel fish day trio,,"Reservations, Outdoor Seating, Seating, Highchairs Available, Wheelchair Accessible, Serves Alcohol, Accepts Credit Cards, Table Service",3.5,fish soup ham mont st michel fish day trio,2,1,1,0.3633333224781487
Le Petit Pontoise,Paris,"9 rue de Pontoise 9 Rue de Pontoise, 75005 Paris France",48.849945,2.352111,"French, European",€€-€€€,4.5,1125.0,pig cheeks escargot vanilla slice sea bass catfish,Vegetarian Friendly,,4.0,pig cheeks escargot vanilla slice sea bass catfish,4,1,1,0.8049198277119806
Le Grand Bleu,Cassis,"12 quai des Baux, 13260 Cassis France",43.21459,5.53743,"French, Seafood, Mediterranean, European, Healthy",€€-€€€,4.5,1501.0,fish gambas friendly service port tourists,"Vegetarian Friendly, Gluten Free Options",,4.5,fish gambas friendly service port tourists,5,1,1,0.6199900731867594
Cote Saisons,Laroque des Alberes,"10 avenue de la Cote Vermeille, 66740 Laroque des Alberes France",42.522465,2.935981,"French, Mediterranean, European",€€€€,4.5,522.0,chocolate dessert excellent food great night fresh ingredients ingrid,,"Reservations, Outdoor Seating, Private Dining, Seating, Parking Available, Validated Parking, Highchairs Available, Wheelchair Accessible, Serves Alcohol, Free Wifi, Accepts Credit Cards, Table Service",4.5,chocolate dessert excellent food great night fresh ingredients ingrid,1,1,1,1.3136064498517808
Thai Spices,Paris,"5 rue de l ave Maria, 75004 Paris France",48.852665,2.360397,Thai,€€-€€€,4.5,562.0,thai food green curry soup spring rolls beef,"Vegetarian Friendly, Vegan Options",,4.5,thai food green curry soup spring rolls beef,0,1,1,0.8908502752765333
La Petite Auberge,Rouen,"164 rue Martainville, 76000, Rouen France",49.439716,1.099779,"French, European, Healthy",€€-€€€,4.5,1279.0,escargot steak salad profiteroles fruits de mer,,"Reservations, Outdoor Seating, Seating, Wheelchair Accessible, Serves Alcohol, Accepts Credit Cards, Table Service",4.0,escargot steak salad profiteroles fruits de mer,5,1,1,0.07296369260592073
L'Escapade Gourmande,Riberac,"2 B avenue de Verdun, 24600, Riberac France",45.24748,0.337351,"Italian, French, Pizza, Healthy, Medicinal foods",€€-€€€,4.0,150.0,pizza creme brulee cafe gourmand home made owner,"Vegetarian Friendly, Vegan Options, Gluten Free Options",,4.0,pizza creme brulee cafe gourmand home made owner,3,1,1,1.1252196869022226
Le Grizzli,Macot-la-Plagne,"Plagne Village A l'arrivée du télébus et de la navette gratuite, 73210 Macot-la-Plagne, Aime France",45.50611,6.684104,"French, Grill",€€-€€€,4.5,655.0,steak prawns fondue tartiflette fries,Vegetarian Friendly,,4.5,steak prawns fondue tartiflette fries,5,1,1,0.3939870287597491
A L'Arbaletrier,Riquewihr,"12 rue du General de Gaulle, 68340 Riquewihr France",48.166573,7.298882,"French, European",€€-€€€,4.0,280.0,escargot cellar cave town alsace,,"Reservations, Seating, Highchairs Available, Serves Alcohol, Accepts Credit Cards, Table Service",4.0,escargot cellar cave town alsace,2,1,1,0.08528598369789442
Bistrot du Boucher,Poitiers,"31 rue Carnot, 86000, Poitiers France",46.578842,0.338618,"French, European, Healthy",€€-€€€,4.5,1905.0,steak tartare salad roast potatoes fries,,,4.0,steak tartare salad roast potatoes fries,5,1,0,-0.6305406009644746
Le Wilson,Paris,"2 Pl Trocadero Et du 11 Novembre, 75116 Paris France",48.863262,2.287942,"French, European",€€-€€€,4.0,1435.0,steak salad creme brûlée snails fries,Vegetarian Friendly,"Outdoor Seating, Seating, Highchairs Available, Wheelchair Accessible, Serves Alcohol, Full Bar, Accepts American Express, Accepts Mastercard, Accepts Visa, Free Wifi, Accepts Credit Cards, Table Service",3.5,steak salad creme brûlée snails fries,5,1,1,0.2959247844445241
Kohinoor,Paris,"23 rue Blanche, 75009 Paris France",48.879368,2.331432,Indian,€€-€€€,3.5,220.0,indian food best indian recommend restaurant gravy dish,"Vegetarian Friendly, Vegan Options",,3.0,indian food best indian recommend restaurant gravy dish,3,0,1,1.4515184517574746
Asuka,Magny-le-Hongre,"60 rue du Moulin a Vent, 77700 Magny-le-Hongre, Marne-la-Vallee France",48.866943,2.809556,"Chinese, Japanese, Thai, Vietnamese, Asian",€€-€€€,5.0,176.0,sushi soups amazing staff delicious meal thai,Vegetarian Friendly,,,sushi soups amazing staff delicious meal thai,1,1,1,0.7961227356729974
Cafe Truc,Paris,"8 rue Froment, 75011 Paris France",48.857147,2.372863,"French, European",€€-€€€,4.0,195.0,potatoes beef scallops copper pan close our hotel,,"Outdoor Seating, Accepts Mastercard, Accepts Visa, Free Wifi, Reservations, Seating, Serves Alcohol, Accepts Credit Cards, Table Service, Full Bar",4.5,potatoes beef scallops copper pan close our hotel,2,1,1,1.0158237917436317
Les Cabines,Ouistreham,"19 route de Lion, 14150 Ouistreham France",49.284576,-0.262078,"French, European",€€-€€€,4.5,472.0,potatoes chicken saturday night main course port,Vegetarian Friendly,,4.0,potatoes chicken saturday night main course port,1,1,1,0.34367973710691435
Distrito Francés Saint Martin,Paris,"10 rue du Faubourg Saint Martin, 75010 Paris France",48.86956,2.355855,"Mexican, Latin, Central American",€€-€€€,4.0,288.0,burrito tacos guacamole pork mexican food,"Vegetarian Friendly, Vegan Options, Gluten Free Options",,,burrito tacos guacamole pork mexican food,1,1,1,0.023779409750462555
Tita,Aix-en-Provence,"6 rue des Bernardines, 13100, Aix-en-Provence France",43.52762,5.446102,"Lebanese, Mediterranean, Israeli",€,5.0,432.0,hummus kefta middle eastern food fantastic lunch tasty food,"Vegetarian Friendly, Vegan Options, Gluten Free Options",,,hummus kefta middle eastern food fantastic lunch tasty food,0,1,1,1.1484467633912292
L'Ecurie Restaurant,Nice,"4 rue du Marche Old Nice, 06300 Nice France",43.697704,7.275198,"Italian, French, Healthy",€€-€€€,4.0,1366.0,ravioli pizza red mullet flambe salad,Vegetarian Friendly,,4.0,ravioli pizza red mullet flambe salad,2,1,0,-0.11552721253877418
L'Ancienne Chapelle,Strasbourg,"2 B Place des Orphelins, 67000, Strasbourg France",48.578957,7.754384,"French, European",€€-€€€,4.0,98.0,duck potatoes salad giselle madame,,"Reservations, Seating, Serves Alcohol, Table Service",3.5,duck potatoes salad giselle madame,5,1,1,0.569112114048135
Voga Goga,Bourg Saint Maurice,"Arc 1800 Residence Edenarc, Arc 1800, 73700, Bourg Saint Maurice France",45.573624,6.785697,"French, Bar, European, Grill",€€-€€€,4.0,396.0,pizza half board ate here dinner service service little slow,Vegetarian Friendly,,,pizza half board ate here dinner service service little slow,3,1,1,0.2440633287910795
Le Félix Faure,Nice,"12 avenue Felix Faure, 06000 Nice France",43.69791,7.272642,"French, Grill, Healthy",€€-€€€,4.5,605.0,rice vegetables lasagna moules frites institution portion sizes,Vegetarian Friendly,,,rice vegetables lasagna moules frites institution portion sizes,3,1,1,0.34085118974873235
La Marina,Paris,"18 rue de la Michodiere, 75002 Paris France",48.87042,2.334839,"Japanese, Sushi, Asian, Grill, Japanese Fusion",€€-€€€,4.5,216.0,sushi rice gyoza soup great food,"Vegetarian Friendly, Vegan Options, Gluten Free Options",,,sushi rice gyoza soup great food,3,1,1,0.5841344824160748
Auberge des Vignes,Volnay,"Rd 974 Rd 74, 21190 Volnay France",46.99268,4.79373,"French, European",€€-€€€,4.0,164.0,excellent menu excellent dinner vineyard burgundy meat,,,4.0,excellent menu excellent dinner vineyard burgundy meat,1,1,1,1.3583264672876116
L'Epicea,Flaine,74300 Flaine France,46.002098,6.700454,"French, Bar, European",€€-€€€,4.5,140.0,lunch chilli nachos salad green run,Vegetarian Friendly,,4.0,lunch chilli nachos salad green run,0,1,0,-0.7197789287299327
Restaurant Le Chamois d'or,Val Thorens,"Rue du Soleil, 73440 Val Thorens, Les Belleville France",45.296185,6.581514,"French, Brew Pub, Dining bars",€€-€€€,3.5,181.0,pizza salad carbonara beef fondue,Vegetarian Friendly,,3.5,pizza salad carbonara beef fondue,0,0,0,-0.09893194169145869
Relais de Mirepoix,Mirepoix,"8 rue Marechal Clauzel, 09500, Mirepoix France",43.088062,1.875436,"French, Mediterranean, European, Fusion",€€-€€€,5.0,171.0,delicious food dining room memorable evening chef carl co owner,"Vegetarian Friendly, Vegan Options, Gluten Free Options",,,delicious food dining room memorable evening chef carl co owner,1,1,1,1.8255121227021238
Le Grenier à Sel,Chagny,"4 rue Marc Boillet, 71150, Chagny France",46.90957,4.754242,"French, Barbecue, European",€€-€€€,4.5,600.0,open fire small salad three courses bbq wine,,"Reservations, Seating, Parking Available, Highchairs Available, Wheelchair Accessible, Serves Alcohol, Accepts Credit Cards, Table Service",4.5,open fire small salad three courses bbq wine,0,1,1,1.0906323387095314
Le Moulin de Varen,Varen,"Le bourg Le Bourg, 82330 Varen, Saint-Antonin Noble Val France",44.164474,1.900635,French,€€-€€€,4.5,315.0,scallops nougat mash guinea fowl gazpacho,"Vegetarian Friendly, Vegan Options, Gluten Free Options","Parking Available, Highchairs Available, Full Bar, Reservations, Outdoor Seating, Seating, Street Parking, Wheelchair Accessible, Serves Alcohol, Wine and Beer, Accepts American Express, Accepts Mastercard, Accepts Visa, Accepts Credit Cards, Table Service, Free Wifi",4.0,scallops nougat mash guinea fowl gazpacho,2,1,1,1.1311867558996078
Le Bistrot Cordais,Cordes-sur-Ciel,"11 Place de la Bouteillerie, 81170, Cordes-sur-Ciel France",44.063023,1.95791,"French, Bar, European, Pub",€€-€€€,4.0,425.0,chops excellent quality beautiful view terrace august,Vegetarian Friendly,,4.0,chops excellent quality beautiful view terrace august,1,1,0,-0.1555922816217623
Le Bistrot du Pollet,Dieppe,"23 rue Tete de Boeuf, 76200, Dieppe France",49.927193,1.083781,"French, European",€€-€€€,4.5,310.0,souffle girolles bistrot style diners calvados,,,3.5,souffle girolles bistrot style diners calvados,3,1,1,0.7561496581173418
TRADI,Paris,"4 rue du Mail, 75002 Paris France",48.866413,2.341663,"Contemporary, French",€€-€€€,4.5,533.0,english speaking great french food wonderful dinner visiting paris waiter,"Vegetarian Friendly, Vegan Options, Gluten Free Options",,,english speaking great french food wonderful dinner visiting paris waiter,3,1,1,1.1374641251250521
Le Bistrot St Julien,Domfront,"Cite Medievale, 2 Place St. Julien, 61700, Domfront France",48.59373,-0.649479,"French, European",€€-€€€,4.0,209.0,burger duck presented food three courses old town,Vegetarian Friendly,,4.0,burger duck presented food three courses old town,2,1,1,0.32775426825798043
Ferme de Janou,Bugarach,"6 Chemin de Cugurou Lieu dit le Pla den Janou, 11190 Bugarach France",42.874767,2.350058,"European, Grill, Catalan",€€-€€€,4.5,198.0,chicken remote location set menu courses waiter,Vegetarian Friendly,,4.0,chicken remote location set menu courses waiter,4,1,0,-0.4079357759940542
Restaurant Le Saint Charles,Saint-Omer,"6 rue du Minck, 62500 Saint-Omer France",50.748646,2.25144,"French, European",€€-€€€,4.5,341.0,foie gras lovely restaurant food wine main square menus,Vegetarian Friendly,,4.0,foie gras lovely restaurant food wine main square menus,0,1,1,0.04474824858062365
La bodega bonifacio,Bonifacio,"avenue de la Carrotola, 20169 Bonifacio, Corsica France",41.387,9.157784,"French, Mediterranean, European, Healthy",€€-€€€,4.5,1510.0,rosé lamb mussels degustation magnifique,Vegetarian Friendly,,4.5,rosé lamb mussels degustation magnifique,4,1,1,0.9466311711439042
Wistub Brenner,Colmar,"1 rue Turenne Colmar, France, 68000, Colmar France",48.0739,7.357708,"French, European",€€-€€€,4.0,1203.0,choucroute sauerkraut onion tart pork cheeks snails,Vegetarian Friendly,,4.0,choucroute sauerkraut onion tart pork cheeks snails,5,1,0,-0.7181412177842245
Restaurant La Tradition,Lille,"73 rue Massena 73 Rue Massena, 59800, Lille France",50.63179,3.054697,"French, European, Pub, Diner, Gastropub",€€-€€€,4.5,397.0,tuna sunday evening main course english dessert,Vegetarian Friendly,,4.0,tuna sunday evening main course english dessert,1,1,1,1.0182969597999545
Restaurant Alpage de Balme,Argentiere,"Domaine de Balme, 74400 Argentiere, Chamonix France",46.02141,6.949644,"French, European",€€-€€€,4.5,67.0,lunch lovely little place book avoid disappointment le tour skiing,,"Reservations, Outdoor Seating, Seating, Table Service",,lunch lovely little place book avoid disappointment le tour skiing,0,1,1,1.3388792598589458
Le Saint Julien,Saint-Julien-Beychevelle,"11 rue de Saint Julien, 33250 Saint-Julien-Beychevelle France",45.164677,-0.740347,"French, European",€€€€,4.5,462.0,foie gras lamb potato gratin salad left bank,,"Reservations, Outdoor Seating, Private Dining, Seating, Highchairs Available, Wheelchair Accessible, Serves Alcohol, Accepts Credit Cards, Table Service",4.0,foie gras lamb potato gratin salad left bank,3,1,1,0.4515662349095825
Hugo,Paris,"12 rue Papillon, 75009 Paris France",48.876266,2.347358,French,€€-€€€,4.5,1069.0,duck rice french bistro waiter pave,"Vegetarian Friendly, Vegan Options",,4.0,duck rice french bistro waiter pave,5,1,1,0.04138126000490916
Le Moulin de la Tardoire,Montbron,"Rue de la Forge La Forge de Pierre Pendu, 16220 Montbron France",45.67677,0.513952,"French, European",€€€€,4.5,540.0,river great success special birthday setting euros,"Vegetarian Friendly, Gluten Free Options",,4.5,river great success special birthday setting euros,1,1,1,0.2887735818048899
Le Club 55,Ramatuelle,"43 boulevard Patch Plage de Pampelonne, 83350 Ramatuelle, Saint-Tropez France",43.227505,6.661639,"French, Mediterranean, European",€€€€,4.0,1517.0,institution south france beach restaurant pampelonne beach club,"Vegetarian Friendly, Vegan Options",,4.0,institution south france beach restaurant pampelonne beach club,3,1,1,0.6451309098385499
Chez Salvatore,Jullouville,"27 avenue de la Liberation, 50610 Jullouville France",48.776253,-1.5676,"Mediterranean, Italian",€€-€€€,4.0,241.0,pizza bruschetta family run restaurant salvatore chez,Vegetarian Friendly,,4.0,pizza bruschetta family run restaurant salvatore chez,0,1,1,0.682619531027831
L'Aperitif Français,Aix-en-Provence,"14 rue Gaston de Saporta, 13100, Aix-en-Provence France",43.530704,5.447617,"French, European, Wine Bar, Brew Pub, Dining bars",€€-€€€,5.0,160.0,charcuterie truffle salad bottle red wine great wine,,,,charcuterie truffle salad bottle red wine great wine,2,1,1,0.7845199585007496
Restaurant Le Grand Bleu,Sarlat-la-Caneda,"43 avenue de la Gare, 24200, Sarlat-la-Canéda France",44.877712,1.219411,"French, European",€€€€,4.5,629.0,railway station excellent meal wonderful food chef texture,,,4.0,railway station excellent meal wonderful food chef texture,1,1,1,0.10472964401390161
Balthazar Cafe Restaurant,Montpellier,"9 Place Chabaneau, 34000, Montpellier France",43.611404,3.876115,"French, European",€€-€€€,4.5,205.0,risotto fabulous food last night ate here square,Vegetarian Friendly,,,risotto fabulous food last night ate here square,1,1,0,-0.2680335598413488
La Maison Carrier,Chamonix,"44 route du Bouchet Hameau Albert 1er, 74400, Chamonix France",45.92485,6.874495,"French, European",€€-€€€,4.0,772.0,rack lamb steak dessert buffet wood fire all you can eat,"Vegetarian Friendly, Gluten Free Options",,4.0,rack lamb steak dessert buffet wood fire all you can eat,3,1,0,-0.3790447645470555
La Table de la Bastide,Carcassonne Center,"55 rue Aime Ramond, 11000 Carcassonne Center, Carcassonne France",43.21183,2.351129,"French, European, Contemporary",€€-€€€,4.5,232.0,owner chef service great fabulous food dishes dessert,"Vegetarian Friendly, Gluten Free Options",,,owner chef service great fabulous food dishes dessert,1,1,1,2.473425443915147
Le Bistrot De Malfourat,Monbazillac,"Malfourat, 24240 Monbazillac, Bergerac France",44.796665,0.461994,"French, Gastropub",€€-€€€,4.0,140.0,cheese plate burger salmon soup michelin star restaurant,,,,cheese plate burger salmon soup michelin star restaurant,5,1,1,1.6645403136029222
Hotel de Normandie Restaurant,Arromanches-les-Bains,"5 Place du 6 Juin 1944, 14117 Arromanches-les-Bains France",49.34002,-0.621662,"French, European",€€-€€€,3.0,493.0,seafood prawns crab three courses belgium,,"Reservations, Outdoor Seating, Seating, Highchairs Available, Wheelchair Accessible, Serves Alcohol, Full Bar, Accepts Credit Cards, Table Service",3.0,seafood prawns crab three courses belgium,1,0,1,0.6977231975325586
Cafe Hugo,Paris,"22 Place des Vosges, 75004 Paris France",48.855972,2.366541,"French, Cafe, European",€€-€€€,3.5,779.0,croque madame steak tartare place des vosges people watching,Vegetarian Friendly,,3.5,croque madame steak tartare place des vosges people watching,0,0,0,-0.4286424245155923
Le Buisson Ardent,Paris,"25 rue Jussieu, 75005 Paris France",48.84688,2.354261,"French, European",€€€€,4.5,991.0,risotto chicken steak bistro dessert,Vegetarian Friendly,,4.0,risotto chicken steak bistro dessert,5,1,1,0.7556081155861158
La Dame de Pic,Paris,"20 rue du Louvre, 75001 Paris France",48.86147,2.341272,"French, European, Healthy",€€€€,4.0,989.0,amuse bouche tasting menu anne sophie pic open kitchen menu plaisir,Vegetarian Friendly,,4.0,amuse bouche tasting menu anne sophie pic open kitchen menu plaisir,4,1,1,1.183533781891978
La Chaumiere,Font-Romeu-Odeillo-Via,"96 avenue Emmanuel Brousse, 66120 Font-Romeu-Odeillo-Via France",42.50529,2.043889,"French, European, Catalan",€€-€€€,4.5,845.0,steak tartare snails excellent dinner font romeu great restaurant,Vegetarian Friendly,,4.5,steak tartare snails excellent dinner font romeu great restaurant,3,1,1,1.406872010420173
Bistrot Des Roques,Saint-Pantaleon,"225 rue des Roques, 84220 Saint-Pantaleon, Gordes France",43.881016,5.216095,"French, Mediterranean",€€-€€€,4.5,184.0,lunch friendly service lovely terrace quiet village saint,,,,lunch friendly service lovely terrace quiet village saint,0,1,1,0.3531205468990535
Casa Nissa,Nice,"55 rue Gioffredo, 06000 Nice France",43.69827,7.270199,"Italian, French, Mediterranean, European",€€-€€€,4.0,476.0,tapas pizza salad ribs ham,"Vegetarian Friendly, Vegan Options, Gluten Free Options",,4.0,tapas pizza salad ribs ham,5,1,1,0.6551380261525637
Cocorico,Paris,"5 rue du Bac, 75007 Paris France",48.859135,2.328987,"French, International, European, Bar, Pub",€€-€€€,4.5,349.0,onion soup snails chicken burger frog legs croque madame,"Vegetarian Friendly, Vegan Options, Gluten Free Options",,,onion soup snails chicken burger frog legs croque madame,5,1,0,-0.4484220889145686
Maison Plisson,Paris,"93 boulevard Beaumarchais, 75003 Paris France",48.859627,2.367573,"French, European",€€-€€€,3.5,569.0,salad baguette jamon sandwiches marais,"Vegetarian Friendly, Vegan Options, Gluten Free Options",,3.5,salad baguette jamon sandwiches marais,5,0,1,0.6842758919911877
les fines gueules,Paris,"43 rue Croix des Petits Champs, 75001 Paris France",48.865128,2.340658,"French, European, Wine Bar",€€-€€€,4.5,502.0,tuna tartare endive lamb oysters rice,"Vegetarian Friendly, Gluten Free Options","Reservations, Outdoor Seating, Seating, Serves Alcohol, Full Bar, Accepts Credit Cards, Table Service",4.5,tuna tartare endive lamb oysters rice,1,1,1,0.10449362642954962
La Lune Bleue Restaurant & Bar,Passirac,"Le Bourg, 16480 Passirac France",45.34534,-0.062237,"French, British, European",€€-€€€,4.5,40.0,fish chips home cooking sunday lunch bleue lauren,"Vegetarian Friendly, Vegan Options",,,fish chips home cooking sunday lunch bleue lauren,2,1,1,0.5884501619681205
George's Roll Seafood,Nice,"40 42 rue Droite, 06300 Nice France",43.69639,7.277094,"Street Food, Canadian",€,5.0,239.0,crab roll sandwiches catfish bread fresh seafood,,"Takeout, Seating, Serves Alcohol, Accepts Credit Cards, Table Service",,crab roll sandwiches catfish bread fresh seafood,1,1,1,1.343516364326534
Ecrit'Vin,Beaune,"8 Place Carnot, 21200, Beaune France",47.022453,4.837943,"French, European, Healthy",€€-€€€,4.5,575.0,beef bourguignon rognons snails dauphinoise potatoes chicken,Vegetarian Friendly,,,beef bourguignon rognons snails dauphinoise potatoes chicken,5,1,1,0.9117883067427311
La Maison de la Sauce by Pignatelle,Beaulieu-sur-Mer,"10 rue du Quincenet, 06310 Beaulieu-sur-Mer France",43.70616,7.332042,"French, Mediterranean, Healthy",€€-€€€,4.5,547.0,duck culinary experience selection wines friendly service la maison,"Vegetarian Friendly, Vegan Options, Gluten Free Options",,4.0,duck culinary experience selection wines friendly service la maison,4,1,1,2.0542354641201794
Le Rossini,Nice,"54 boulevard Gambetta, 06000 Nice France",43.701015,7.256404,"Italian, French, Mediterranean, European",€€-€€€,4.0,384.0,mussels pizza seafood bad service nice restaurant,Vegetarian Friendly,,,mussels pizza seafood bad service nice restaurant,0,1,1,0.47268610379552134
Aux Antipodes,Marseille,"26 rue Sainte, 13001 Marseille France",43.292553,5.375372,"Brazilian, Asian, Thai, Healthy, Fusion",€€-€€€,4.5,754.0,sushi burger fresh ingredients chef fusion,Vegetarian Friendly,,,sushi burger fresh ingredients chef fusion,1,1,1,2.369957496804059
Bar & Restaurant Le Dahlia,Saint-Martin-de-Belleville,"les Grangeraies, 73440, Les Belleville France",45.37707,6.504186,"Bar, European",€€-€€€,3.5,86.0,lunch veggie burger pit stop friendly service chips,Vegetarian Friendly,,4.5,lunch veggie burger pit stop friendly service chips,3,0,0,-0.44722053452915145
Le Beffroi,Nuits-Saint-Georges,"4 Grande rue, 21700 Nuits-Saint-Georges France",47.136665,4.948918,"French, Bar, European",€€-€€€,3.5,175.0,burger nuit st bistro george france,,"Reservations, Outdoor Seating, Seating, Wheelchair Accessible, Serves Alcohol, Table Service, Full Bar",3.5,burger nuit st bistro george france,3,0,1,0.6918146454094066
Restaurant La Gare,Gex,"154 avenue de la Gare, 01170 Gex France",46.333363,6.062908,"French, European",€€-€€€,4.0,361.0,plat du jour train station terrace details presentation,Vegetarian Friendly,,3.5,plat du jour train station terrace details presentation,2,1,0,-0.6044249264975877
Le Petit Cadet,Paris,"9 rue Cadet, 75009 Paris France",48.87498,2.343056,"French, Bar, European",€€-€€€,4.5,211.0,burger beef pasta truffle bread,Vegetarian Friendly,,,burger beef pasta truffle bread,3,1,1,0.0516004142755524
La Sirène,Saint-Hilaire-de-Riez,"156 avenue de la Pege, 85270 Saint-Hilaire-de-Riez France",46.75086,-2.015369,"French, European",€€-€€€,3.5,271.0,chicken nuggets creme brulee kids menu children holiday,Vegetarian Friendly,,,chicken nuggets creme brulee kids menu children holiday,5,0,1,0.9743161637741254
Bourgogne Sud,Paris,"14 rue de Clichy, 75009 Paris France",48.878075,2.330117,"French, European",€€-€€€,4.5,919.0,beef bourgogne steak chicken salad de paris,,"Reservations, Seating, Wheelchair Accessible, Serves Alcohol, Accepts Credit Cards, Table Service",4.0,beef bourgogne steak chicken salad de paris,5,1,0,-0.8297653985406875
Le Montrachet,Puligny-Montrachet,"10 Place du Paquier de la Fontaine, 21190 Puligny-Montrachet, Beaune France",46.944466,4.753648,"French, European",€€€€,4.5,719.0,bread wine list fantastic lunch lunch menu between courses,Vegetarian Friendly,,4.5,bread wine list fantastic lunch lunch menu between courses,4,1,1,1.5677974250572326
ASPIC,Paris,"24 rue de la Tour D Auvergne, 75009 Paris France",48.879196,2.343756,"French, European, Contemporary, Healthy",€€€€,5.0,981.0,tasting menu seven courses pollock fixed menu mackerel,,"Gift Cards Available, Reservations, Seating, Serves Alcohol, Accepts Mastercard, Accepts Visa, Accepts Credit Cards",,tasting menu seven courses pollock fixed menu mackerel,4,1,1,1.424040293487631
Maison des Tanneurs,Strasbourg,"42 rue du Bain aux Plantes Proche Place Zix et Canaux de L'ill dans La Petite France, 67000, Strasbourg France",48.581264,7.741944,"French, European",€€-€€€,4.5,943.0,choucroute sauerkraut onion soup salmon pork,,"Reservations, Private Dining, Seating, Highchairs Available, Serves Alcohol, Accepts Credit Cards, Table Service, Gift Cards Available",4.5,choucroute sauerkraut onion soup salmon pork,5,1,0,-0.8514257673890052
Bistro V,Paris,"56 boulevard de Port Royal, 75005 Paris France",48.837738,2.346222,"French, Diner, European",€€-€€€,4.5,894.0,snails duck baked camembert chocolate torte chorizo,,,,snails duck baked camembert chocolate torte chorizo,5,1,1,1.0847921052747063
L'Alchimie Restaurant,Bayeux,"49 rue Saint Jean, 14400, Bayeux France",49.276333,-0.699333,"French, European",€€-€€€,4.5,726.0,pork steak service excellent highly recommend restaurant reservation,"Vegetarian Friendly, Vegan Options, Gluten Free Options",,4.0,pork steak service excellent highly recommend restaurant reservation,0,1,1,1.2566882609404328
L'Atelier Alexandre Bousquet,Biarritz,"52 Avenue Alan Seeger, 64200 Biarritz France",43.44937,-1.544986,French,€€€€,4.5,91.0,mango foie gras delicious food cuisine chef,,"Reservations, Outdoor Seating, Private Dining, Seating, Parking Available, Validated Parking, Wheelchair Accessible, Serves Alcohol, Accepts Credit Cards, Table Service, Free off-street parking, Digital Payments, Free Wifi",,mango foie gras delicious food cuisine chef,1,1,1,1.572477246306496
Garopapilles,Bordeaux,"62, rue Abbé de l'Épée, 33000, Bordeaux France",44.841915,-0.582564,"Diner, French, European, Contemporary",€€€€,4.5,615.0,taster menu set menu small restaurant great restaurant michelin,"Vegetarian Friendly, Gluten Free Options",,4.5,taster menu set menu small restaurant great restaurant michelin,4,1,1,1.6393210259630444
Otaku Restaurant Japonais,Nice,"2 rue Paganini, 06000 Nice France",43.70187,7.264055,"Japanese, Asian, Sushi",€€-€€€,4.5,60.0,sushi chicken great food anime waitress,Vegetarian Friendly,,,sushi chicken great food anime waitress,3,1,1,1.0083302003996257
La Veraison,Paris,"64 rue de la Croix Nivert, 75015 Paris France",48.84495,2.297453,"French, Healthy, Fusion",€€-€€€,4.5,689.0,duck risotto chocolate dessert shrimp excellent restaurant,Vegetarian Friendly,"Free Wifi, Reservations, Seating, Wheelchair Accessible, Serves Alcohol, Accepts Mastercard, Accepts Visa, Accepts Credit Cards, Table Service",4.5,duck risotto chocolate dessert shrimp excellent restaurant,3,1,1,0.5261607066452595
Le Yeti,Avoriaz,"582 route de l Alpage Plateau d'Avoriaz, 74110 Avoriaz, Morzine France",46.193443,6.77339,"French, Bar, European",€€-€€€,4.0,450.0,lunch crepes sandwich vegetable soup great location,Vegetarian Friendly,"Outdoor Seating, Seating, Serves Alcohol, Full Bar, Free Wifi, Accepts Credit Cards, Table Service",4.0,lunch crepes sandwich vegetable soup great location,3,1,1,0.2907652881529158
Crepe Val's,Val d'Isere,"Immeuble Les Verdets, 73150 Val d'Isère France",45.448586,6.980275,French,€€-€€€,4.0,247.0,crepes extensive menu friendly service creperie savory,"Vegetarian Friendly, Vegan Options",,3.5,crepes extensive menu friendly service creperie savory,5,1,1,1.17070116172557
Le Tchitchou,Nice,"29 avenue Georges Clemenceau 06000 Nice, 06000 Nice France",43.701702,7.26286,"Mediterranean, French, European, Healthy",€€-€€€,4.5,718.0,rabbit stuffed sardines pasta trippa eat local,Vegetarian Friendly,,4.5,rabbit stuffed sardines pasta trippa eat local,3,1,1,0.4036331802213042
Da Passano,Bonifacio,"53 quai Jerome Comparetti, 20169 Bonifacio, Corsica France",41.3881,9.163593,"Fusion, Wine Bar, French, Mediterranean, European, Healthy",€€-€€€,4.5,1209.0,tapas pancetta sea bass style dishes booked table,"Vegetarian Friendly, Gluten Free Options",,,tapas pancetta sea bass style dishes booked table,2,1,1,0.5763018825695689
Le Potiron Gourmet,Nice,"3 avenue de Carras, 06200 Nice France",43.680523,7.23001,"French, Mediterranean, European, Healthy, Contemporary",€€-€€€,4.5,225.0,veal cooked perfection sauce cuisine dish,Vegetarian Friendly,,4.0,veal cooked perfection sauce cuisine dish,4,1,1,1.5628437615723818
Les Bonnes Soeurs,Paris,"8 rue du Pas de la Mule, 75003 Paris France",48.856007,2.366914,"French, European",€€-€€€,4.0,540.0,brunch bread pancakes french fries vosges,"Vegetarian Friendly, Vegan Options",,4.0,brunch bread pancakes french fries vosges,5,1,1,0.3806891836207
Restaurant et Caveau de la Porte Guillaume,Dijon,"Place Darcy, 21000, Dijon France",47.32321,5.034942,French,€€-€€€,4.0,597.0,beef bourguignon mousse cheese board tasting menu foie gras,,"Reservations, Seating, Highchairs Available, Wheelchair Accessible, Serves Alcohol, Full Bar, Accepts Credit Cards, Table Service",3.5,beef bourguignon mousse cheese board tasting menu foie gras,4,1,1,0.6623205872816945
Franchin,Nice,"10 rue Massenet Zone Pietonne, 06000 Nice France",43.69645,7.264086,"French, European",€€-€€€,4.5,878.0,lobster soupe de poisson burrata salad chef,"Vegetarian Friendly, Gluten Free Options",,4.5,lobster soupe de poisson burrata salad chef,0,1,1,0.7869741208826193
Wok 86,Gond-Pontouvre,"93 route de Paris, 16160 Gond-Pontouvre France",45.66762,0.172504,"Chinese, Asian, Vietnamese, Japanese",€,3.5,108.0,soft drinks per person all you can eat chinese restaurant beer wine,Vegetarian Friendly,,,soft drinks per person all you can eat chinese restaurant beer wine,2,0,1,0.3462967676234618
60 Degres Tisanerie Moderne,Aix-en-Provence,"6 rue Paul Bert, 13100, Aix-en-Provence France",43.530357,5.448389,French,€€-€€€,4.5,82.0,bread herbal tea gf options gluten dishes,"Vegetarian Friendly, Vegan Options, Gluten Free Options",,,bread herbal tea gf options gluten dishes,1,1,1,1.1909488993247814
Le Yeti,Morillon,"le Badnay, 74440 Morillon France",46.08178,6.681117,"French, European",€€-€€€,4.5,161.0,pizza steak tartiflette during our stay food wine,,"Takeout, Reservations, Outdoor Seating, Seating, Highchairs Available, Serves Alcohol, Table Service, Full Bar",3.0,pizza steak tartiflette during our stay food wine,2,1,1,0.6591626061973883
Leon de Bruxelles,Paris,"63 avenue des Champs Elysees, 75008 Paris France",48.87067,2.30474,"French, European",€€-€€€,3.5,2245.0,mussels fries seafood rice champs elysees,,,3.5,mussels fries seafood rice champs elysees,0,0,0,-0.48612203752695715
Le Garde Manger,Bayeux,"23 rue Larcher Hôtel Reine Mathilde à Bayeux - Brasserie, Pizzéria, Crêperie, 14400, Bayeux France",49.27608,-0.701678,"French, Bar",€€-€€€,4.0,1505.0,burger fries crepes mussels brasserie,"Vegetarian Friendly, Vegan Options, Gluten Free Options",,4.0,burger fries crepes mussels brasserie,5,1,0,-0.38529580922117035
La Maison à Colonnes,Sainte-Foy-Tarentaise,"Station, Sainte-Foy-Tarentaise France",45.577667,6.894012,"French, European",€€-€€€,4.0,264.0,lunch great beer ate here apres ski sun,,"Reservations, Outdoor Seating, Seating, Highchairs Available, Serves Alcohol, Full Bar, Table Service",4.0,lunch great beer ate here apres ski sun,2,1,1,0.19288070782695688
La Chaloupe,Wissant,"Rue du muret Rue Muret, 62179 Wissant France",50.88552,1.667292,"French, Seafood, European",€€-€€€,4.0,674.0,lunch fruits de mer crab seafood langoustines,,"Reservations, Outdoor Seating, Seating, Parking Available, Validated Parking, Highchairs Available, Wheelchair Accessible, Serves Alcohol, Full Bar, Free Wifi, Accepts Credit Cards, Table Service",4.0,lunch fruits de mer crab seafood langoustines,5,1,1,0.30795068432378814
L'Entrecote,Bordeaux,"4 cours du 30 Juillet, 33000, Bordeaux France",44.843178,-0.5745,"French, Steakhouse, European",€€-€€€,4.0,4474.0,steak chips walnut salad entrecote french fries profiteroles,,"Outdoor Seating, Seating, Highchairs Available, Wheelchair Accessible, Serves Alcohol, Accepts Credit Cards, Table Service",3.5,steak chips walnut salad entrecote french fries profiteroles,5,1,1,0.7031310124114629
Restaurant L'Opéra Café,Avignon,"24 Place de l Horloge face au grand opera d Avignon, 84000, Avignon France",43.949535,4.806028,"French, European, Mediterranean",€€-€€€,3.5,968.0,fish soup burger filet interesting decor touristic place,Vegetarian Friendly,,3.5,fish soup burger filet interesting decor touristic place,4,0,1,0.3806881105356294
Jean-Luc Rabanel,Arles,"7 rue des Carmes, 13200, Arles France",43.676014,4.626957,"French, Mediterranean, European",€€€€,4.0,777.0,gelato creative food lunch menu vegetables chef,"Vegetarian Friendly, Vegan Options",,3.5,gelato creative food lunch menu vegetables chef,1,1,1,2.0470306239501457
Coeur des Neiges,Tignes,"Promenade de Toviere, 73320 Tignes France",45.46856,6.908571,"French, European, Contemporary",€€-€€€,4.0,533.0,crepes burger potatoes lovely meal service great,"Vegetarian Friendly, Vegan Options",,,crepes burger potatoes lovely meal service great,1,1,0,-0.014161294281212045
SteakHouse Club 72  Val Thorens,Val Thorens,"Rue de Gebroulaz, 73440 Val Thorens, Les Belleville France",45.29696,6.585169,"Steakhouse, French, European, Gastropub",€€-€€€,4.5,249.0,steak ribs salad foie gras cooked perfection,"Vegetarian Friendly, Gluten Free Options","Highchairs Available, Reservations, Seating, Wheelchair Accessible, Serves Alcohol, Full Bar, Wine and Beer, Accepts American Express, Accepts Mastercard, Accepts Visa, Digital Payments, Accepts Credit Cards, Table Service, Free Wifi",,steak ribs salad foie gras cooked perfection,4,1,1,0.5775935689731456
La Societe,Paris,"4 Place Saint Germain des Pres Saint-Germain-des-Prés, 75006 Paris France",48.85446,2.333373,"French, European, Fusion, Gastropub",€€€€,4.0,877.0,tom yam sole pasta tuna escargot,"Vegetarian Friendly, Vegan Options, Gluten Free Options","Reservations, Outdoor Seating, Private Dining, Seating, Wheelchair Accessible, Serves Alcohol, Full Bar, Free Wifi, Accepts Credit Cards, Table Service",4.0,tom yam sole pasta tuna escargot,3,1,0,-0.7170969217797484
Restaurant Cafe Du Soleil,Lyon,"2 Rue St Georges, 69005 Lyon France",45.759388,4.825558,"French, European",€€-€€€,4.0,564.0,quenelle lyonnaise salad foie gras lobster soup,,"Takeout, Reservations, Outdoor Seating, Seating, Serves Alcohol, Accepts Credit Cards, Table Service",4.0,quenelle lyonnaise salad foie gras lobster soup,4,1,1,0.6500887291787834
Restaurant Le Santana,Sagone,"Plage du Santana Esigna, 20118 Sagone, Corsica France",42.101227,8.707642,"French, Seafood, Mediterranean, European, Healthy",€€-€€€,5.0,1553.0,lunch corsican wines excellent value without reservation sea,"Vegetarian Friendly, Vegan Options",,,lunch corsican wines excellent value without reservation sea,1,1,1,1.6039076417108404
Asiatique cuisine,Confolens,"Place Henri Dezaphie, 16500, Confolens France",46.01534,0.673503,"Asian, Thai, Healthy",€€-€€€,4.5,12.0,thai red curry rice ice cream great restaurant spicy,,,,thai red curry rice ice cream great restaurant spicy,0,1,1,0.8887855791131494
Brasserie Le Nord,Lyon,"18 rue Neuve, 69002 Lyon France",45.765244,4.835705,French,€€-€€€,4.0,1489.0,chicken escargot macaroni quenelle bread,Vegetarian Friendly,"Reservations, Private Dining, Seating, Highchairs Available, Wheelchair Accessible, Serves Alcohol, Full Bar, Accepts Credit Cards, Gift Cards Available",4.0,chicken escargot macaroni quenelle bread,5,1,1,1.2878387603384405
Le Bistrot du Peintre,Paris,"116 avenue Ledru Rollin, 75011 Paris France",48.853207,2.377258,"French, Bar, European",€€-€€€,4.0,484.0,duck confit art nouveau decor nice neighborhood main course friday evening,Vegetarian Friendly,,4.0,duck confit art nouveau decor nice neighborhood main course friday evening,3,1,0,-0.31605257641128015
Le Pain Quotidien,Paris,"18 rue des Archives, 75004 Paris France",48.866577,2.331712,"French, European",€€-€€€,3.5,784.0,croissants quinoa nice lunch food excellent pan,"Vegetarian Friendly, Vegan Options, Gluten Free Options",,3.5,croissants quinoa nice lunch food excellent pan,1,0,1,1.065343659664122
Le Patio,Arcachon,"10 boulevard de la Plage, 33120 Arcachon France",44.656902,-1.148035,"French, European",€€€€,4.5,788.0,mignardises amuse bouche tartare gambas set price menu,,"Reservations, Private Dining, Seating, Highchairs Available, Wheelchair Accessible, Serves Alcohol, Accepts Credit Cards, Table Service",4.0,mignardises amuse bouche tartare gambas set price menu,4,1,1,0.2484159878090736
FTG,Paris,"9 rue du Nil, 75002 Paris France",48.867702,2.347776,"Contemporary, Fusion, Street Food",€€-€€€,4.0,480.0,lobster roll pastrami fish chips nice lunch frenchie,Vegetarian Friendly,,3.5,lobster roll pastrami fish chips nice lunch frenchie,1,1,1,0.8273878021814568
Restaurant eels,Paris,"27 rue d Hauteville, 75010 Paris France",48.87324,2.350321,"French, European",€€€€,4.5,265.0,smoked eel tasting menu saint jacques courses vinaigrette,"Vegetarian Friendly, Gluten Free Options",,,smoked eel tasting menu saint jacques courses vinaigrette,4,1,1,1.457346375828152
L'Endroit,Honfleur,"3 rue Charles Et Paul Breard, 14600, Honfleur France",49.418194,0.233356,"French, European, Healthy",€€-€€€,4.5,1063.0,lamb clams soup seafood dessert,Vegetarian Friendly,"Reservations, Private Dining, Seating, Wheelchair Accessible, Serves Alcohol, Accepts Credit Cards, Table Service",4.5,lamb clams soup seafood dessert,5,1,1,0.4374767913619292
Restaurant Fleur de Neige,Chatel,"564 route de Vonnes, 74390 Chatel, Abondance France",46.26218,6.840649,"French, European",€€-€€€,4.5,349.0,salad burger discovery menu last night excellent food,"Vegetarian Friendly, Vegan Options",,4.5,salad burger discovery menu last night excellent food,1,1,1,0.6429977272952184
Pain & Cie,Nice,"Rue St Francois de Paule, 06300 Nice France",43.695793,7.273581,"French, European",€€-€€€,3.0,576.0,brunch plat du jour flower market shot espresso old town,Vegetarian Friendly,,,brunch plat du jour flower market shot espresso old town,2,0,1,0.32090580806030555
Le Lavalette,Villebois-Lavalette,"7 Place des Halles, 16320 Villebois-Lavalette France",45.48227,0.280157,"French, European",€€-€€€,4.5,278.0,foie gras beef covered market beautiful setting main course,Vegetarian Friendly,,4.5,foie gras beef covered market beautiful setting main course,4,1,1,0.6731481398062744
Café de Paris Saint-Tropez,Saint-Tropez,"25 quai du Bailli de Suffren, 83990, Saint-Tropez France",43.271713,6.638917,"French, Bar, Mediterranean, European, Gastropub",€€-€€€,4.0,602.0,lunch escargot prawns bistro pastis excellent food service,"Vegetarian Friendly, Vegan Options",,4.5,lunch escargot prawns bistro pastis excellent food service,1,1,1,1.1754878410175211
Bouillon Chartier Montparnasse,Paris,"59 boulevard du Montparnasse, 75006 Paris France",48.84427,2.323349,French,€,4.0,784.0,bouillon snails salad steak baba au rhum,,,,bouillon snails salad steak baba au rhum,5,1,0,-0.04327292946784145
Le Tremplin,L'Alpe-d'Huez,"Les Bergers, 38750 L'Alpe-d'Huez France",45.094913,6.07636,"French, European",€€-€€€,3.5,308.0,lunch pizza chicken steak tartiflette,Vegetarian Friendly,,3.0,lunch pizza chicken steak tartiflette,0,0,0,-0.09632879572242459
Le Grand bleu,Beaune,"10 Place au Beurre 21200 Beaune, 21200, Beaune France",47.02398,4.838056,"French, European",€€-€€€,4.0,463.0,soup menu gourmand coq au vin wine list three courses,,"Reservations, Outdoor Seating, Seating, Wheelchair Accessible, Serves Alcohol, Accepts Credit Cards, Table Service",3.5,soup menu gourmand coq au vin wine list three courses,5,1,1,0.5073267843674941
La Cambuse,Nice,"5 cours Saleya, 06300 Nice France",43.695637,7.275561,"French, Mediterranean, European, Gastropub",€€-€€€,3.5,864.0,salad seafood pasta flower market lovely meal sit outside,,"Reservations, Outdoor Seating, Seating, Highchairs Available, Wheelchair Accessible, Serves Alcohol, Full Bar, Accepts Credit Cards, Table Service",3.5,salad seafood pasta flower market lovely meal sit outside,3,0,0,-0.20995630343458072
La Grillardine,Boulogne-sur-Mer,"30 rue de Lille, 62200 Boulogne-sur-Mer France",50.725246,1.614311,"French, European, Grill",€€-€€€,4.5,583.0,steak brochette great meal upstairs restaurant home made,,,4.5,steak brochette great meal upstairs restaurant home made,3,1,1,0.7587132230718764
La Corte,Paris,"320 rue Saint Honore, 75001 Paris France",48.865395,2.331394,"Italian, Mediterranean, European",€€-€€€,4.5,285.0,pasta rue st family owned restaurant restaurant based small restaurant,"Vegetarian Friendly, Vegan Options",,4.0,pasta rue st family owned restaurant restaurant based small restaurant,0,1,1,1.4712428381564324
